"Company.Name","Subindustry","Address","Phone","Postcode","Latitude","Longitude","Community.Board","Community.Council","Census.Tract","BIN","BBL","NTA","Rating","Review","Price","Yelp.Category","Hotel.Rating(~100)","Hotel.Price(~100)","Hotel.Review(~100)","Hotel.Count(~100)","Hotel.Rating(~200)","Hotel.Price(~200)","Hotel.Review(~200)","Hotel.Count(~200)","Hotel.Rating(200~400)","Hotel.Price(200~400)","Hotel.Review(200~400)","Hotel.Count(200~400)","Hotel.Rating(400~600)","Hotel.Price(400~600)","Hotel.Review(400~600)","Hotel.Count(400~600)","Hotel.Rating(600~800)","Hotel.Price(600~800)","Hotel.Review(600~800)","Hotel.Count(600~800)","Hotel.Rating(800~)","Hotel.Price(800~)","Hotel.Review(800~)","Hotel.Count(800~)"
"Europa Cafe","Deli","3 Times Sq","2122390160",10036,40.756376,-73.986713,5,3,119,1024686,1010140033,"Midtown-Midtown South                                                      ",1.5,23,1,"sandwiches",NA,NA,NA,0,3.5,2.5,201.5,6,9.16666666666667,6.5,593.666666666667,18,4.91666666666667,3.33333333333333,188.833333333333,9,3.58333333333333,3,220.166666666667,7,0.416666666666667,0.5,106.166666666667,1
"Ranch 1","Fast Food","832 Eighth Ave","2129561111",10019,40.762444,-73.985983,5,3,131,1024809,1010220002,"Midtown-Midtown South                                                      ",NA,NA,NA,NA,4,2,162,1,3.4,2,161.8,5,9.14,7.6,696,15,6.16,4.6,460.8,11,7.2,4.8,253.8,10,0,0,0,0
"Sosa Borella","Argentinian","832 Eighth Ave","2122628282",10019,40.762444,-73.985983,5,3,131,1024809,1010220002,"Midtown-Midtown South                                                      ",3.5,122,2,"italian",4,2,162,1,3.4,2,161.8,5,9.14,7.6,696,15,6.16,4.6,460.8,11,7.2,4.8,253.8,10,0,0,0,0
"Mi Nidito (Cantina Mexicana)","Mexican","852 Eighth Ave","2122650022",10019,40.763128,-73.985481,5,3,131,1081646,1010230002,"Midtown-Midtown South                                                      ",3,155,2,"mexican",4,2,162,1,3.33333333333333,2.33333333333333,147.666666666667,3,11.5,9.33333333333333,901.666666666667,12,10.8333333333333,8.33333333333333,854,11,16,10.6666666666667,714.666666666667,14,1.5,1,2.66666666666667,1
"Starbucks","Coffee","871-879 Eighth Ave, Suite# 871","2122467699",10019,40.763644,-73.985134,4,3,133,1025257,1010437501,"Clinton                                                                    ",2,42,2,"coffee",4,2,162,1,3.33333333333333,2.66666666666667,186.333333333333,3,9,7,736.666666666667,9,11.7333333333333,9.33333333333333,800,11,12.4333333333333,8.33333333333333,714.333333333333,13,6.66666666666667,4.33333333333333,183.333333333333,5
"China Gourmet","Chinese","877 Eighth Ave","2122468181",10019,40.763789,-73.985026,4,3,133,1025257,1010437501,"Clinton                                                                    ",2.5,181,1,"chinese",4,2,162,1,3.33333333333333,2.66666666666667,186.333333333333,3,9,7,736.666666666667,9,10.5666666666667,8.33333333333333,550,10,13.6,9.33333333333333,964.333333333333,14,6.66666666666667,4.33333333333333,183.333333333333,5
"Rino Trattoria","Italian","877 Eighth Ave","2123070666",10019,40.763789,-73.985026,4,3,133,1025257,1010437501,"Clinton                                                                    ",2.5,115,2,"italian",4,2,162,1,3.33333333333333,2.66666666666667,186.333333333333,3,9,7,736.666666666667,9,10.5666666666667,8.33333333333333,550,10,13.6,9.33333333333333,964.333333333333,14,6.66666666666667,4.33333333333333,183.333333333333,5
"Laxmi Corp. Newsstand","Deli","879 Eighth Ave",NA,10019,40.763839,-73.98499,4,3,133,1025257,1010437501,"Clinton                                                                    ",NA,NA,NA,NA,4,2,162,1,3.33333333333333,2.66666666666667,186.333333333333,3,9,7,736.666666666667,9,10.5666666666667,8.33333333333333,550,10,13.6,9.33333333333333,964.333333333333,14,6.66666666666667,4.33333333333333,183.333333333333,5
"Caffe Cielo","Italian","881 Eighth Ave","2122469555",10019,40.763885,-73.984954,4,3,133,1025323,1010437502,"Clinton                                                                    ",3,20,2,"italian",NA,NA,NA,0,3.33333333333333,2.66666666666667,186.333333333333,3,9,7,736.666666666667,9,10.5666666666667,8.33333333333333,550,10,12.6,8.33333333333333,848.666666666667,13,7.66666666666667,5.33333333333333,299,6
"Cosmic Diner","Diner","888 Eighth Ave","2123335888",10019,40.764072,-73.984791,5,3,131,1024825,1010240001,"Midtown-Midtown South                                                      ",2.5,303,2,"diners",NA,NA,NA,0,3.33333333333333,2.66666666666667,186.333333333333,3,8.16666666666667,6.33333333333333,707.333333333333,8,10.4,8,561.666666666667,10,13.6,9.33333333333333,866.333333333333,14,7.66666666666667,5.33333333333333,299,6
"Brasserie Athena","French","300 W 46th St","2123991100",10036,40.759963,-73.988355,4,3,121,1081654,1010360036,"Clinton                                                                    ",2.5,222,2,"french",3.16666666666667,2,34,3,2.64285714285714,1.57142857142857,165.857142857143,7,5.85714285714286,4.57142857142857,491.142857142857,13,9.21428571428571,6.57142857142857,364.142857142857,19,0.785714285714286,0.857142857142857,102,2,0,0,0,0
"The House of Brews","American","302 W 51st St",NA,10019,40.763037,-73.985958,4,3,133,1025175,1010410037,"Clinton                                                                    ",4,387,2,"sportsbars",4,2,162,1,3.33333333333333,2.33333333333333,147.666666666667,3,11.5,9.33333333333333,901.666666666667,12,10.8333333333333,8.33333333333333,854,11,16,10.6666666666667,714.666666666667,14,1.5,1,2.66666666666667,1
"Seasons","American","888 Eighth Ave","2125862257",10019,40.764072,-73.984791,5,3,131,1024825,1010240001,"Midtown-Midtown South                                                      ",4,27,2,"florists",NA,NA,NA,0,3.33333333333333,2.66666666666667,186.333333333333,3,8.16666666666667,6.33333333333333,707.333333333333,8,10.4,8,561.666666666667,10,13.6,9.33333333333333,866.333333333333,14,7.66666666666667,5.33333333333333,299,6
"World of Nuts and Ice Cream","Dessert","888 Eighth Ave","2122450398",10019,40.764072,-73.984791,5,3,131,1024825,1010240001,"Midtown-Midtown South                                                      ",1.5,3,1,NA,NA,NA,NA,0,3.33333333333333,2.66666666666667,186.333333333333,3,8.16666666666667,6.33333333333333,707.333333333333,8,10.4,8,561.666666666667,10,13.6,9.33333333333333,866.333333333333,14,7.66666666666667,5.33333333333333,299,6
"Green Emporium","Deli","791 Eighth Ave","2124591924",10019,40.761133,-73.986958,4,3,127,1025141,1010390029,"Clinton                                                                    ",3,18,2,"delis",4,2,255,1,2.92857142857143,2,142,7,6,4.57142857142857,549,14,8.92857142857143,6.57142857142857,431,19,0.642857142857143,0.428571428571429,1.14285714285714,1,0,0,0,0
"Rosie O'Grady's Saloon","American","800 Seventh Ave","2125822975",10019,40.762441,-73.982294,5,4,131,1024827,1010240029,"Midtown-Midtown South                                                      ",3,366,2,"tradamerican",2.33333333333333,2.66666666666667,447,3,2.91666666666667,2.83333333333333,279.333333333333,6,3.75,2.66666666666667,176.333333333333,7,7.78333333333333,6,503.333333333333,15,5.8,3.33333333333333,309.666666666667,11,1.33333333333333,1,41.6666666666667,2
"810 Deli, Inc","Deli","810 Seventh Ave","2125414136",10019,40.762639,-73.982146,5,4,131,1024828,1010240038,"Midtown-Midtown South                                                      ",3,143,2,"delis",2.33333333333333,2.66666666666667,447,3,2.91666666666667,2.83333333333333,279.333333333333,6,3.75,2.66666666666667,176.333333333333,7,6.7,5.16666666666667,454,13,6.88333333333333,4.16666666666667,359,13,1.33333333333333,1,41.6666666666667,2
"Deli / CafÌ©","Deli","810 Seventh Ave","2125414136",10019,40.762639,-73.982146,5,4,131,1024828,1010240038,"Midtown-Midtown South                                                      ",3,143,2,"delis",2.33333333333333,2.66666666666667,447,3,2.91666666666667,2.83333333333333,279.333333333333,6,3.75,2.66666666666667,176.333333333333,7,6.7,5.16666666666667,454,13,6.88333333333333,4.16666666666667,359,13,1.33333333333333,1,41.6666666666667,2
"Ichi Masa Japanese Sushi","Japanese","825 Eighth Ave","2123154800",10019,40.762074,-73.986275,4,3,127,1076203,1010400029,"Clinton                                                                    ",3,99,2,"japanese",NA,NA,NA,0,3.25,2,149.5,6,7.2,6,565.333333333333,14,6.8,4.83333333333333,435.333333333333,14,4.33333333333333,3,160.166666666667,7,0,0,0,0
"Starbucks","Coffee","825 Eighth Ave","2124622020",10019,40.762074,-73.986275,4,3,127,1076203,1010400029,"Clinton                                                                    ",3,42,2,"coffee",NA,NA,NA,0,3.25,2,149.5,6,7.2,6,565.333333333333,14,6.8,4.83333333333333,435.333333333333,14,4.33333333333333,3,160.166666666667,7,0,0,0,0
"Starbucks","Coffee","156 W 52nd St","2125816410",10019,40.762027,-73.981622,5,4,131,1023157,1010040020,"Midtown-Midtown South                                                      ",2.5,20,2,"coffee",2.875,2.75,319.75,4,2.91666666666667,2.83333333333333,279.333333333333,6,4.25,3.16666666666667,185.166666666667,8,8.36666666666667,6,507.166666666667,16,4.71666666666667,2.83333333333333,297,9,1.33333333333333,1,41.6666666666667,2
"The Library @ Paramount Hotel","American","235 W 46th St","2128274183",10036,40.759132,-73.986348,5,3,125,1024737,1010180006,"Midtown-Midtown South                                                      ",3.5,3,3,"lounges",2.6,2,302.5,2,2.96666666666667,2.44444444444444,255.777777777778,9,8.53333333333333,5.66666666666667,412.666666666667,24,2.88888888888889,2.44444444444444,205.111111111111,8,0,0,0,0,0,0,0,0
"46 Bar (Paramount Hotel)","Bar / Lounge","235 W 46th St","2127645500",10036,40.759132,-73.986348,5,3,125,1024737,1010180006,"Midtown-Midtown South                                                      ",2.2,272,2,"hotels",2.6,2,302.5,2,2.96666666666667,2.44444444444444,255.777777777778,9,8.53333333333333,5.66666666666667,412.666666666667,24,2.88888888888889,2.44444444444444,205.111111111111,8,0,0,0,0,0,0,0,0
"Victor's Cafe","Deli","236 W 52nd St","2125867714",10019,40.762968,-73.983853,5,3,131,1080858,1010230051,"Midtown-Midtown South                                                      ",4,1173,3,"cuban",3,3,198.5,2,2.83333333333333,2.5,297.333333333333,6,5,3.66666666666667,256.333333333333,9,6.36666666666667,4.83333333333333,365.333333333333,12,6.05,3.83333333333333,349.666666666667,12,1.33333333333333,1,41.6666666666667,2
"Auntie Anne's","Fast Food","664 Eighth Ave","2127641542",10036,40.757436,-73.989633,5,3,119,1087142,1010140001,"Midtown-Midtown South                                                      ",3,28,1,"pretzels",NA,NA,NA,0,2.36,1.6,264.2,5,3.94,2.8,226.4,6,14.8,10.4,690.2,22,3.2,2.4,201.6,5,1.6,1.8,190,3
"B.B. King Blues Club & Grill","American","237 W 42nd St","2129974144",10036,40.756785,-73.988702,5,3,119,1087142,1010140001,"Midtown-Midtown South                                                      ",3,619,2,"tradamerican",3,2.33333333333333,263,3,3.375,2.5,199.25,4,5,3.5,497,7,18,12.5,779.75,22,3.125,2.25,211.75,4,2.875,3,277.75,4
"Cold Stone Creamery/ Tim Horton's","Dessert","243 W 42nd St","2123981882",10036,40.756821,-73.988789,5,3,119,1087142,1010140001,"Midtown-Midtown South                                                      ",3,156,2,"icecream",3,2.33333333333333,263,3,3.375,2.5,199.25,4,5.625,3.75,510,8,17.375,12.25,766.75,21,3.125,2.25,211.75,4,2.875,3,277.75,4
"Dallas BBQ","Barbecue","27 West 72nd Street","2128732004",10023,40.776988,-73.977766,7,6,157,1087511,1011257502,"Lincoln Square                                                             ",3,162,2,"bbq",NA,NA,NA,0,NA,NA,NA,0,NA,NA,NA,0,NA,NA,NA,0,NA,NA,NA,0,Inf,Inf,Inf,41
"Starbucks","Coffee","251 W 42nd St","2123981982",10036,40.756867,-73.988901,5,3,119,1087142,1010140001,"Midtown-Midtown South                                                      ",2.5,31,2,"coffee",3,2.33333333333333,263,3,3.375,2.5,199.25,4,6.375,4.25,517,9,16.625,11.75,759.75,20,3.125,2.25,211.75,4,2.875,3,277.75,4
"Pongsri Thai Restaurant","Thai","244 W 48th St","2125823392",10036,40.76052,-73.985817,5,3,125,1024765,1010190059,"Midtown-Midtown South                                                      ",3.5,430,2,"thai",3,2.2,193.2,5,3.01538461538462,2.30769230769231,190.153846153846,13,3.94615384615385,2.92307692307692,311.076923076923,17,3,2.07692307692308,103.538461538462,11,0,0,0,0,0,0,0,0
"Smokehouse","Italian","249 W 48th St",NA,10036,40.76057,-73.98589,5,3,125,NA,NA,"Midtown-Midtown South                                                      ",NA,NA,NA,NA,3,2,173.25,4,3.01538461538462,2.30769230769231,190.153846153846,13,3.79230769230769,2.84615384615385,302.307692307692,16,3.15384615384615,2.15384615384615,112.307692307692,12,0,0,0,0,0,0,0,0
"Lucky Star Cafe","American","250 W 43rd St","2018389269",10036,40.757309,-73.987901,5,3,119,1085096,1010140055,"Midtown-Midtown South                                                      ",3.5,51,1,"sandwiches",3,2.33333333333333,263,3,2.71666666666667,1.83333333333333,221.5,6,11.7833333333333,8.16666666666667,618.833333333333,21,3.5,2.66666666666667,163.666666666667,7,3.58333333333333,3.16666666666667,306.333333333333,7,0,0,0,0
"Shula's Steakhouse","Steakhouse","250 W 43rd St","2122012776",10036,40.757309,-73.987901,5,3,119,1085096,1010140055,"Midtown-Midtown South                                                      ",3.5,142,3,"steak",3,2.33333333333333,263,3,2.71666666666667,1.83333333333333,221.5,6,11.7833333333333,8.16666666666667,618.833333333333,21,3.5,2.66666666666667,163.666666666667,7,3.58333333333333,3.16666666666667,306.333333333333,7,0,0,0,0
"Scarlatto","Italian","250 W 47th St","2127304535",10036,40.759892,-73.986276,5,3,125,1024744,1010180054,"Midtown-Midtown South                                                      ",3.5,359,2,"italian",2.56666666666667,2,231,3,3.09230769230769,2.38461538461538,238.615384615385,13,4.48461538461538,3.07692307692308,245.846153846154,19,2.38461538461538,1.84615384615385,120.307692307692,9,0,0,0,0,0,0,0,0
"Toloache","Mexican","251 W 50th St","2125811818",10019,40.761851,-73.985041,5,3,131,1024814,1010220101,"Midtown-Midtown South                                                      ",4,1547,3,"mexican",3,2,130.666666666667,3,3.16666666666667,2.33333333333333,174.111111111111,9,4.46666666666667,3.66666666666667,316.888888888889,13,4.53333333333333,3.11111111111111,321.444444444444,14,2.22222222222222,1.44444444444444,61.1111111111111,5,0,0,0,0
"Bluechili","Pan Asian","251 W 51st St","2122463330",10019,40.762477,-73.984586,5,3,131,1024815,1010230005,"Midtown-Midtown South                                                      ",3,44,2,"thai",3,2.5,140.5,2,3,2.28571428571429,202.714285714286,7,5.35714285714286,4.42857142857143,374.142857142857,12,5.14285714285714,3.57142857142857,329.142857142857,12,4.35714285714286,2.85714285714286,216,9,0.642857142857143,0.428571428571429,1.14285714285714,1
"Pergola des Artistes","French","252 W 46th St","2123027500",10036,40.759261,-73.986695,5,3,119,1024729,1010170057,"Midtown-Midtown South                                                      ",4,1,2,"french",2.6,2,302.5,2,2.95,2.3,283.4,10,7.4,5,318.2,23,2.6,2.2,184.6,8,0,0,0,0,0,0,0,0
"Trattoria Trecolori","Italian","254 W 47th St","2129974540",10036,40.759919,-73.986348,5,3,125,1024746,1010180056,"Midtown-Midtown South                                                      ",4,1704,2,"italian",2.56666666666667,2,231,3,3.09230769230769,2.38461538461538,238.615384615385,13,4.21538461538462,2.84615384615385,233.461538461538,18,2.65384615384615,2.07692307692308,132.692307692308,10,0,0,0,0,0,0,0,0
"Russian Samovar Restaurant","Russian","256 W 52nd St","2127570168",10019,40.763111,-73.984192,5,3,131,1024821,1010230059,"Midtown-Midtown South                                                      ",4,329,2,"russian",3,3,198.5,2,2.83333333333333,2.5,297.333333333333,6,4.5,3.33333333333333,200.833333333333,8,6.86666666666667,5.16666666666667,420.833333333333,13,6.05,3.83333333333333,349.666666666667,12,1.33333333333333,1,41.6666666666667,2
"John's Pizzeria","Pizza","260 W 44th St","2123917560",10036,40.758124,-73.987897,5,3,119,1024710,1010150059,"Midtown-Midtown South                                                      ",3.5,1701,2,"pizza",2.76666666666667,1.66666666666667,359.666666666667,3,2.33333333333333,1.66666666666667,265.5,6,13.9166666666667,9.66666666666667,675.333333333333,24,2.41666666666667,1.66666666666667,90.1666666666667,5,2.91666666666667,2.83333333333333,279.333333333333,6,0,0,0,0
"Just Pies Inc","Dessert","260 W 44th St","2127217001",10036,40.758124,-73.987897,5,3,119,1024710,1010150059,"Midtown-Midtown South                                                      ",NA,NA,NA,NA,2.76666666666667,1.66666666666667,359.666666666667,3,2.33333333333333,1.66666666666667,265.5,6,13.9166666666667,9.66666666666667,675.333333333333,24,2.41666666666667,1.66666666666667,90.1666666666667,5,2.91666666666667,2.83333333333333,279.333333333333,6,0,0,0,0
"Sunrise Deli","Deli","1441 Broadway","2122216490",10018,40.754707,-73.986753,5,3,113,1022569,1009930055,"Midtown-Midtown South                                                      ",3,6,2,"delis",NA,NA,NA,0,4.5,3,8,1,37,25,1808,11,38.5,29,3098,13,28,19,1110,9,21.5,19,1838,7
"Restaurant Charlotte @ Millennium Broadway Hotel","American","145 W 44th St","2127897508",10036,40.756667,-73.984396,5,4,119,1085016,1009970010,"Midtown-Midtown South                                                      ",3,13,2,"newamerican",3.57142857142857,2.28571428571429,136.428571428571,7,3.54166666666667,2.33333333333333,175.416666666667,12,2.89166666666667,2.33333333333333,189.75,11,2.9,1.91666666666667,144.916666666667,12,1.45833333333333,1.33333333333333,145.083333333333,6,0,0,0,0
"O'Lunney's Times Square Pub","American","145 W 45th St","2128406688",10036,40.757336,-73.984017,5,4,119,1022634,1009980012,"Midtown-Midtown South                                                      ",4,308,2,"irish",3.45,2.3,129,10,3.4,2.4,160.933333333333,15,2.11333333333333,1.66666666666667,155.266666666667,10,2.28666666666667,1.53333333333333,128.2,12,0.833333333333333,0.733333333333333,79.7333333333333,4,0,0,0,0
"Vacant (Juan Valdez Coffee)","Coffee","1451 Broadway","2128717515",10036,40.755152,-73.986613,5,3,113,1086069,1009940001,"Midtown-Midtown South                                                      ",3.5,32,1,"coffee",NA,NA,NA,0,4.5,2.5,36.5,2,18,13,1246.5,11,21,16,1241,15,12.5,8,536.5,7,8.75,8,870.5,6
"Abondanza","Deli","146 W 46th St","2129381333",10036,40.757948,-73.983598,5,4,119,1022650,1009980054,"Midtown-Midtown South                                                      ",3.5,17,1,"delis",3.25,2.25,88.25,8,3.375,2.5,182.1875,16,1.48125,1,88.5625,8,3.2375,2.4375,220.625,17,0,0,0,0,0,0,0,0
"Dervish Turkish Restaurant","Turkish","146 W 47th St","2129970070",10036,40.758579,-73.98315,5,4,125,1022670,1009990053,"Midtown-Midtown South                                                      ",3.5,129,2,"turkish",3.2,2.4,79.6,5,3.34615384615385,2.46153846153846,179.461538461538,13,3.36153846153846,2.53846153846154,203.615384615385,14,3.25384615384615,2.30769230769231,221.692307692308,14,0,0,0,0,0,0,0,0
"Godiva Chocolatier, Inc.","Dessert","1460 Broadway","2128406758",10036,40.754998,-73.986284,5,4,113,1022573,1009947504,"Midtown-Midtown South                                                      ",4,24,2,"chocolate",NA,NA,NA,0,4.5,2.5,36.5,2,18,13,1246.5,11,18.25,14,1183,13,15.25,10,594.5,9,8.75,8,870.5,6
"Ranch 1","Fast Food","141 W 41st St",NA,10036,40.754756,-73.985956,5,4,113,1022574,1009940016,"Midtown-Midtown South                                                      ",3,11,1,"hotdogs",NA,NA,NA,0,4.5,2.5,36.5,2,18,13,1246.5,11,17.5,13,1174,12,14,9.5,555,9,10.75,9.5,919,7
"Scotts Food Court","American","141 W 41st St","2127681111",10036,40.754756,-73.985956,5,4,113,1022574,1009940016,"Midtown-Midtown South                                                      ",2,6,1,"delis",NA,NA,NA,0,4.5,2.5,36.5,2,18,13,1246.5,11,17.5,13,1174,12,14,9.5,555,9,10.75,9.5,919,7
"Tony's Di Napoli","Italian","147 W 43rd Str","2122210100",10036,40.756022,-73.984808,5,4,119,1022611,1009960009,"Midtown-Midtown South                                                      ",4,1616,2,"italian",3.75,2.5,161.75,4,3.5,2.25,127.375,8,5.775,4.5,378.75,14,3.2875,2.25,224.875,10,3.625,2.875,251.75,9,0,0,0,0
"Bombay Masala Indian Restaurant","Indian","148 W 49th St","2123028150",10019,40.759847,-73.982294,5,4,125,1022698,1010010157,"Midtown-Midtown South                                                      ",2.5,102,2,"indpak",NA,NA,NA,0,3.25,2.75,75.5,4,18.675,14.75,1358.5,24,8.45,4.75,469,10,2,1.5,62.5,3,0,0,0,0
"Vacant (former CafÌ© Groppi)","Deli","148 W 49th St","2122210082",10019,40.759847,-73.982294,5,4,125,1022698,1010010157,"Midtown-Midtown South                                                      ",NA,NA,NA,NA,NA,NA,NA,0,3.25,2.75,75.5,4,18.675,14.75,1358.5,24,8.45,4.75,469,10,2,1.5,62.5,3,0,0,0,0
"Ruth's Chris Steak House","Steakhouse","148 W 51st St","2122459600",10020,40.761357,-73.981969,5,4,131,1022710,1010037501,"Midtown-Midtown South                                                      ",4,740,3,"steak",3,2.5,282.5,2,2.8,2.8,303,5,8.2,6.4,456.8,13,9.74,6.8,522.6,15,4.26,2.4,288.4,7,0.9,0.6,1.6,1
"Rosie O'Grady's Steakhouse","Steakhouse","149 W 46th St","2128690600",10036,40.757981,-73.983627,5,4,125,1022664,1009990011,"Midtown-Midtown South                                                      ",2.5,20,2,"pubs",3.25,2.25,88.25,8,3.375,2.5,182.1875,16,1.7,1.1875,115.625,9,3.01875,2.25,193.5625,16,0,0,0,0,0,0,0,0
"Le Marais","French","150 W 46th St","2128690900",10036,40.757984,-73.983677,5,4,119,1022651,1009980055,"Midtown-Midtown South                                                      ",3,228,3,"french",3.25,2.25,88.25,8,3.375,2.5,182.1875,16,1.7,1.1875,115.625,9,3.01875,2.25,193.5625,16,0,0,0,0,0,0,0,0
"Langan's Bar & Restaurant","American","150 W 47th St","2128695482",10036,40.758612,-73.983233,5,4,125,1022671,1009990054,"Midtown-Midtown South                                                      ",3.5,191,2,"bars",3.2,2.4,79.6,5,3.34615384615385,2.46153846153846,179.461538461538,13,3.36153846153846,2.53846153846154,203.615384615385,14,3.25384615384615,2.30769230769231,221.692307692308,14,0,0,0,0,0,0,0,0
"Y & H Grocery","Deli","150 W 47th St","2128401659",10036,40.758612,-73.983233,5,4,125,1022671,1009990054,"Midtown-Midtown South                                                      ",NA,NA,NA,NA,3.2,2.4,79.6,5,3.34615384615385,2.46153846153846,179.461538461538,13,3.36153846153846,2.53846153846154,203.615384615385,14,3.25384615384615,2.30769230769231,221.692307692308,14,0,0,0,0,0,0,0,0
"Bella Napoli","Italian","150 W 49th St","2127192819",10019,40.759867,-73.982334,5,4,125,1022695,1010010058,"Midtown-Midtown South                                                      ",3,76,1,"pizza",NA,NA,NA,0,3.25,2.75,75.5,4,17.675,14,1353,23,9.45,5.5,474.5,12,2,1.5,62.5,2,0,0,0,0
"Osteria Al Doge","Italian","142 W 44th St","2129443643",10036,40.756634,-73.984367,5,4,119,1022620,1009960051,"Midtown-Midtown South                                                      ",4,377,3,"italian",3.57142857142857,2.28571428571429,136.428571428571,7,3.54545454545455,2.27272727272727,123.181818181818,11,3.47272727272727,2.81818181818182,275.181818181818,12,3.16363636363636,2.09090909090909,158.090909090909,12,1.59090909090909,1.45454545454545,158.272727272727,6,0,0,0,0
"St. Andrews Restaurant and Bar","Bar / Lounge","142 W 46th St","2128408413",10036,40.757915,-73.983519,5,4,119,1022659,1009980152,"Midtown-Midtown South                                                      ",3.5,397,2,"pubs",3.25,2.25,88.25,8,3.36666666666667,2.46666666666667,166.133333333333,15,1.81333333333333,1.26666666666667,122.666666666667,9,3.45333333333333,2.6,235.333333333333,17,0,0,0,0,0,0,0,0
"Pasta Lovers Trattoria","Italian","142 W 49th St","2128191155",10019,40.759798,-73.982172,5,4,125,1022694,1010010055,"Midtown-Midtown South                                                      ",3.5,218,2,"italian",NA,NA,NA,0,3.25,2.75,75.5,4,18.675,14.75,1358.5,24,7.2,4.25,455,9,3.25,2,76.5,4,0,0,0,0
"John's Shanghai","Chinese","144 W 46th St","2128699183",10036,40.757932,-73.983558,5,4,119,1022649,1009980053,"Midtown-Midtown South                                                      ",NA,NA,NA,NA,3.25,2.25,88.25,8,3.375,2.5,182.1875,16,1.48125,1,88.5625,8,3.2375,2.4375,220.625,17,0,0,0,0,0,0,0,0
"Starbucks","Coffee","1460 Broadway","2122217515",10036,40.754998,-73.986284,5,4,113,1022573,1009947504,"Midtown-Midtown South                                                      ",2.5,78,2,"coffee",NA,NA,NA,0,4.5,2.5,36.5,2,18,13,1246.5,11,18.25,14,1183,13,15.25,10,594.5,9,8.75,8,870.5,6
"Virgils Real Barbecue","Barbecue","152 W 44th St","2129219494",10036,40.756716,-73.984558,5,4,119,1022621,1009960054,"Midtown-Midtown South                                                      ",3.5,1311,2,"bbq",3.57142857142857,2.28571428571429,136.428571428571,7,3.54166666666667,2.33333333333333,175.416666666667,12,2.89166666666667,2.33333333333333,189.75,11,2.9,1.91666666666667,144.916666666667,12,1.45833333333333,1.33333333333333,145.083333333333,6,0,0,0,0
"Iroha","Japanese","152 W 49th St","2123989049",10019,40.759883,-73.982374,5,4,125,1022696,1010010059,"Midtown-Midtown South                                                      ",3.5,323,2,"japanese",NA,NA,NA,0,3.25,2.75,75.5,4,17.675,14,1353,23,9.45,5.5,474.5,12,2,1.5,62.5,2,0,0,0,0
"Sapporo","Japanese","152 W 49th St","2128698972",10019,40.759883,-73.982374,5,4,125,1022696,1010010059,"Midtown-Midtown South                                                      ",3.5,11,2,"ramen",NA,NA,NA,0,3.25,2.75,75.5,4,17.675,14,1353,23,9.45,5.5,474.5,12,2,1.5,62.5,2,0,0,0,0
"Europa Cafe","Deli","152 W 51st St","2125810152",10019,40.761439,-73.982168,5,4,131,1022710,1010037501,"Midtown-Midtown South                                                      ",3,59,1,"sandwiches",3,2.5,282.5,2,2.8,2.8,303,5,8.2,6.4,456.8,13,9.74,6.8,522.6,15,4.26,2.4,288.4,7,0.9,0.6,1.6,1
"Bar Americain","American","152 W 52nd St","2122659700",10019,40.762005,-73.981568,5,4,131,1023157,1010040020,"Midtown-Midtown South                                                      ",3.5,1328,3,"newamerican",2.875,2.75,319.75,4,2.8,2.8,303,5,5.8,4.4,254.4,9,10.04,7.2,608.6,16,5.66,3.4,356.4,9,1.6,1.2,50,2
"Ruby's Diner","Diner","234 W 42nd St",NA,10036,40.756747,-73.988659,5,3,113,1024665,1010130012,"Midtown-Midtown South                                                      ",NA,NA,NA,NA,3,2.33333333333333,263,3,3.375,2.5,199.25,4,5.875,4,550.25,8,17.125,12,726.5,21,3.125,2.25,211.75,4,2.875,3,277.75,4
"Virtigo Cafe Llc","Deli","234 W 42nd St","2122219454",10036,40.756747,-73.988659,5,3,113,1024665,1010130012,"Midtown-Midtown South                                                      ",2,2,1,"restaurants",3,2.33333333333333,263,3,3.375,2.5,199.25,4,5.875,4,550.25,8,17.125,12,726.5,21,3.125,2.25,211.75,4,2.875,3,277.75,4
"Aoki","Japanese","234 W 48th St","2129562355",10036,40.760454,-73.985655,5,3,125,1024764,1010190055,"Midtown-Midtown South                                                      ",4,189,2,"vietnamese",3,2.2,193.2,5,3.01538461538462,2.30769230769231,190.153846153846,13,4.21538461538462,3.15384615384615,320.538461538462,18,2.73076923076923,1.84615384615385,94.0769230769231,10,0,0,0,0,0,0,0,0
"Saigon 48","Vietnamese","234 W 48th St","2122478669",10036,40.760454,-73.985655,5,3,125,1024764,1010190055,"Midtown-Midtown South                                                      ",3,197,2,"vietnamese",3,2.2,193.2,5,3.01538461538462,2.30769230769231,190.153846153846,13,4.21538461538462,3.15384615384615,320.538461538462,18,2.73076923076923,1.84615384615385,94.0769230769231,10,0,0,0,0,0,0,0,0
"Inakaya","Japanese","620 Eighth Ave","2123542130",10018,40.756039,-73.990651,5,3,113,1087186,1010127501,"Midtown-Midtown South                                                      ",3.5,465,3,"japanese",NA,NA,NA,0,3.5,3,242,1,12.8,8,1087,5,40.2,29,2650,12,49,34,1925,15,24,21,1958,8
"Schnipper's Quality Kitchen","American","620 Eighth Ave","2129212400",10018,40.756039,-73.990651,5,3,113,1087186,1010127501,"Midtown-Midtown South                                                      ",3.5,820,2,"burgers",NA,NA,NA,0,3.5,3,242,1,12.8,8,1087,5,40.2,29,2650,12,49,34,1925,15,24,21,1958,8
"McDonald's","Fast Food","1651 Broadway","2125865530",10019,40.762164,-73.983575,5,3,131,1024817,1010230018,"Midtown-Midtown South                                                      ",2,46,1,"hotdogs",2.66666666666667,2.66666666666667,288.333333333333,3,3.05555555555556,2.44444444444444,239.222222222222,9,3.77777777777778,3.11111111111111,215.333333333333,11,4.38888888888889,2.77777777777778,258.555555555556,12,2.66666666666667,1.88888888888889,159.555555555556,8,0.5,0.333333333333333,0.888888888888889,1
"Starbucks","Coffee","1530 Broadway","2123912079",10036,40.757674,-73.985121,5,4,119,1022624,1009970001,"Midtown-Midtown South                                                      ",2.5,17,2,"coffee",3.5,3,750,1,3.41875,2.4375,193.75,16,2.6125,1.9375,155.8125,15,1.75,1.1875,87.25,8,0.3125,0.375,54.5625,2,0,0,0,0
"Sardi's Restaurant","American","234-236 W 44th St","2122218440",10036,40.757921,-73.987421,5,3,119,1024707,1010150049,"Midtown-Midtown South                                                      ",3.5,404,3,"tradamerican",2.75,2,273.5,2,2.5,1.85714285714286,334.714285714286,7,12.5714285714286,8.71428571428571,508.714285714286,26,1.5,1,54.1428571428571,3,1.92857142857143,2,225.571428571429,5,0,0,0,0
"Dean & Deluca","Deli","560 Broadway","2128696890",10012,40.723909,-73.998048,2,1,43,1007567,1004970018,"SoHo-TriBeCa-Civic Center-Little Italy                                     ",4,580,3,"gourmet",NA,NA,NA,0,NA,NA,NA,0,NA,NA,NA,0,NA,NA,NA,0,NA,NA,NA,0,Inf,Inf,Inf,41
"Library Bar","American","235 W 46th St","2128274183",10036,40.759132,-73.986348,5,3,125,1024737,1010180006,"Midtown-Midtown South                                                      ",3.5,3,3,"lounges",2.6,2,302.5,2,2.96666666666667,2.44444444444444,255.777777777778,9,8.53333333333333,5.66666666666667,412.666666666667,24,2.88888888888889,2.44444444444444,205.111111111111,8,0,0,0,0,0,0,0,0
"La Rivista Ristorante","Italian","313 W 46th St","2122451707",10036,40.760082,-73.98859,4,3,127,1025051,1010370025,"Clinton                                                                    ",3,69,3,"italian",3.16666666666667,2,34,3,2.71666666666667,1.5,148.166666666667,6,7.2,5.66666666666667,618.333333333333,14,10.75,7.66666666666667,424.833333333333,19,0.916666666666667,1,119,2,0,0,0,0
"Broadway Joe Steakhouse","Steakhouse","315 W 46th St","2122466513",10036,40.760098,-73.988629,4,3,127,1075688,1010370024,"Clinton                                                                    ",2.5,49,3,"steak",3.16666666666667,2,34,3,2.71666666666667,1.5,148.166666666667,6,7.2,5.66666666666667,618.333333333333,14,10.75,7.66666666666667,424.833333333333,19,0.916666666666667,1,119,2,0,0,0,0
"Bistecca Fiorentina","Steakhouse","317 W 46th St","2122583232",10036,40.760114,-73.988669,4,3,127,1078871,1010370023,"Clinton                                                                    ",4,105,3,"italian",3.16666666666667,2,34,3,2.71666666666667,1.5,148.166666666667,6,7.2,5.66666666666667,618.333333333333,14,10.75,7.66666666666667,424.833333333333,19,0.916666666666667,1,119,2,0,0,0,0
"Gourmet New York","Deli","680 Eighth Ave",NA,10036,40.757998,-73.989218,5,3,119,1024703,1010150001,"Midtown-Midtown South                                                      ",2.5,47,2,"grocery",2.1,1.33333333333333,321.666666666667,3,2.36,1.6,264.2,5,6.74,4.8,478,10,12.5,8.8,462.6,19,3.7,3.2,352.2,6,0.6,0.6,15.4,1
"Port Gourmet Deli","Deli","681 Eighth Ave","2122453168",10036,40.758007,-73.98924,4,3,121,1024967,1010340029,"Clinton                                                                    ",2.5,47,2,"grocery",2.1,1.33333333333333,321.666666666667,3,2.36,1.6,264.2,5,6.74,4.8,478,10,12.5,8.8,462.6,19,3.7,3.2,352.2,6,0.6,0.6,15.4,1
"McDonald's","Fast Food","220 W 42nd St","2122217664",10036,40.756412,-73.987858,5,3,113,1024663,1010130042,"Midtown-Midtown South                                                      ",2.5,86,1,"hotdogs",3.33333333333333,2.33333333333333,121.333333333333,3,3.375,2.5,199.25,4,10.875,7.5,810.75,14,12.125,8.5,466,15,3.125,2.25,211.75,4,2.875,3,277.75,4
"McDonald's","Fast Food","688 Eighth Ave","2122213941",10036,40.758218,-73.989059,5,3,119,1024704,1010150004,"Midtown-Midtown South                                                      ",1.5,32,1,"hotdogs",1.4,0.5,266,2,2.36,1.6,264.2,5,7.24,5.2,495.6,11,12,8.4,445,18,4.3,3.8,367.6,7,0,0,0,0
"Robert Emmett's Bar & Restaurant","American","694 Eighth Ave","2123029999",10036,40.758383,-73.98894,5,3,119,1078853,1010150061,"Midtown-Midtown South                                                      ",2.5,46,2,"newamerican",1.4,0.5,266,2,2.36,1.6,264.2,5,7.24,5.2,495.6,11,12.8,8.8,477.4,19,3.5,3.4,335.2,6,0,0,0,0
"1657 Broadway Deli, Ltd.","Deli","1651-1665 Broadway","2129560099",10019,40.762164,-73.983575,5,3,131,1024817,1010230018,"Midtown-Midtown South                                                      ",NA,NA,NA,NA,2.66666666666667,2.66666666666667,288.333333333333,3,3.05555555555556,2.44444444444444,239.222222222222,9,3.77777777777778,3.11111111111111,215.333333333333,11,4.38888888888889,2.77777777777778,258.555555555556,12,2.66666666666667,1.88888888888889,159.555555555556,8,0.5,0.333333333333333,0.888888888888889,1
"Hard Rock Cafe","American","1501 Broadway","2123433355",10036,40.757103,-73.986193,5,3,119,1024706,1010150029,"Midtown-Midtown South                                                      ",3,670,2,"tradamerican",NA,NA,NA,0,3.41666666666667,2.5,288.5,6,11.0833333333333,8,552.833333333333,22,4.16666666666667,2.66666666666667,178.833333333333,7,2.91666666666667,2.66666666666667,290.166666666667,6,0,0,0,0
"Planet Hollywood","American","1540 Broadway","2123337827",10036,40.757847,-73.985009,5,4,119,1076844,1009987501,"Midtown-Midtown South                                                      ",3,303,2,"tradamerican",3.5,3,750,1,3.2625,2.4375,190.25,16,3.01875,2.0625,175.25,16,1.8125,1.4375,125.875,9,0,0,0,0,0,0,0,0
"B. Smith's Restaurant Row","American","320 W 46th St","2123151100",10036,40.760136,-73.988759,4,3,121,1025014,1010360041,"Clinton                                                                    ",3,198,3,"tradamerican",5,2,56,1,2.71666666666667,1.5,148.166666666667,6,7.2,5.66666666666667,618.333333333333,14,10.75,7.66666666666667,424.833333333333,19,0.916666666666667,1,119,2,0,0,0,0
"Orso","Italian","322 W 46th St","2124897212",10036,40.760153,-73.988803,4,3,121,1025032,1010360142,"Clinton                                                                    ",4,151,3,"italian",5,2,56,1,2.71666666666667,1.5,148.166666666667,6,7.2,5.66666666666667,618.333333333333,14,10.75,7.66666666666667,424.833333333333,19,0.916666666666667,1,119,2,0,0,0,0
"Joe Allen","American","326 W 46th St","2125816464",10036,40.760186,-73.988882,4,3,121,1025016,1010360044,"Clinton                                                                    ",4,314,2,"tradamerican",5,2,56,1,2.71666666666667,1.5,148.166666666667,6,7.2,5.66666666666667,618.333333333333,14,10.75,7.66666666666667,424.833333333333,19,0.916666666666667,1,119,2,0,0,0,0
"O'Flaherty's Ale House & Restaurant","American","334 W 46th St","2125819366",10036,40.760254,-73.989045,4,3,121,1025018,1010360047,"Clinton                                                                    ",3,66,2,"irish",5,2,56,1,2.46,1.4,126.8,5,8.14,6.2,740.4,13,12.9,9.4,507,19,2.4,2,198.2,4,0,0,0,0
"Sangria 46","Spanish","338 W 46th St","2125818482",10036,40.76029,-73.989124,4,3,121,1082452,1010360149,"Clinton                                                                    ",3.5,334,2,"spanish",5,2,56,1,2.46,1.4,126.8,5,8.14,6.2,740.4,13,12.1,8.8,502.6,18,3.2,2.6,202.6,5,0,0,0,0
"Le Rivage","French","340 W 46th St","2127657374",10036,40.760307,-73.989167,4,3,121,1025020,1010360049,"Clinton                                                                    ",3.5,310,3,"french",5,2,56,1,2.46,1.4,126.8,5,7.44,5.6,691,12,11.1,8.4,519.6,17,4.9,3.6,235,7,0,0,0,0
"Da Rosina Ristorante Italiano","Italian","342 W 46th St","2129777373",10036,40.760323,-73.989207,4,3,121,1025021,1010360050,"Clinton                                                                    ",3,133,2,"italian",5,2,56,1,2.46,1.4,126.8,5,6.74,5,642.6,11,11.8,9,568,18,4.9,3.6,235,7,0,0,0,0
"EZ Deil and NY Nail Land","Deli","1625 Broadway","2123335650",10019,40.761223,-73.984207,5,3,125,1024801,1010210043,"Midtown-Midtown South                                                      ",4.5,3,1,NA,3,2.25,166.25,4,3.11111111111111,2.44444444444444,180.222222222222,9,5.8,4.66666666666667,426.222222222222,17,4.58888888888889,2.77777777777778,239.333333333333,13,0.888888888888889,0.666666666666667,27.7777777777778,2,0,0,0,0
"Dunkin' Donuts","Coffee","210 W 50th St","2127574617",10019,40.76156,-73.984395,5,3,125,1024802,1010210045,"Midtown-Midtown South                                                      ",2.5,17,1,"donuts",3,2,130.666666666667,3,3.05,2.4,187.7,10,3.87,3.3,324.5,13,4.78,3,242.5,15,1.25,0.8,31.5,3,0,0,0,0
"Famous Famiglia Pizzeria","Pizza","1630 Broadway","2123334646",10019,40.761327,-73.984106,5,4,125,1024799,1010210037,"Midtown-Midtown South                                                      ",3,74,1,"pizza",2.83333333333333,2.33333333333333,193,3,3.05,2.5,185.8,10,4.97,3.9,360,16,4.13,2.5,215.4,13,0.8,0.6,25,2,0,0,0,0
"Italia Mia Pizza","Pizza","1674 Broadway","2122651414",10019,40.762861,-73.983109,5,4,131,1024831,1010240131,"Midtown-Midtown South                                                      ",3.5,10,1,"pizza",2.83333333333333,3,344.666666666667,3,2.83333333333333,2.66666666666667,286.5,6,4.5,3.16666666666667,211.666666666667,8,6.86666666666667,5.16666666666667,420.833333333333,13,6.05,3.83333333333333,349.666666666667,12,1.33333333333333,1,41.6666666666667,2
"Club House CafÌ©","Spanish","155 W 46th St","2123543838",10036,40.758031,-73.983746,5,4,125,1022662,1009990008,"Midtown-Midtown South                                                      ",3.5,35,2,"sportsbars",3.21428571428571,2.42857142857143,99.1428571428571,7,3.375,2.5,182.1875,16,1.7,1.1875,115.625,9,3.01875,2.25,193.5625,16,0,0,0,0,0,0,0,0
"Restaurant","American","155 W 46th St","2128690900",10036,40.758031,-73.983746,5,4,125,1022662,1009990008,"Midtown-Midtown South                                                      ",3,228,3,"french",3.21428571428571,2.42857142857143,99.1428571428571,7,3.375,2.5,182.1875,16,1.7,1.1875,115.625,9,3.01875,2.25,193.5625,16,0,0,0,0,0,0,0,0
"TGI Friday's","American","1552 Broadway","2129447352",10036,40.758665,-73.984977,5,4,125,1022660,1009990001,"Midtown-Midtown South                                                      ",1.5,125,2,"tradamerican",3.5,3,473.333333333333,3,3.26666666666667,2.58333333333333,224.083333333333,12,5.275,3.58333333333333,280.666666666667,21,2.25,1.75,150.416666666667,8,0,0,0,0,0,0,0,0
"Meson Sevilla Ristorante","Spanish","344 W 46th St","2122625890",10036,40.760342,-73.989247,4,3,121,1025022,1010360051,"Clinton                                                                    ",3.5,194,2,"spanish",5,2,56,1,2.46,1.4,126.8,5,6.74,5,642.6,11,11.1,8.8,565.6,17,5.6,3.8,237.4,8,0,0,0,0
"Danny's Grand Sea Palace","Seafood","346 W 46th St","2122658130",10036,40.760359,-73.989286,4,3,121,1080885,1010360052,"Clinton                                                                    ",4,2,2,"thai",5,2,56,1,2.46,1.4,126.8,5,6.74,5,642.6,11,11.1,8.8,565.6,17,5.6,3.8,237.4,8,0,0,0,0
"Sushi of Gari","Japanese","347 W 46th St","2129570046",10036,40.760373,-73.989276,4,3,127,1025048,1010370012,"Clinton                                                                    ",4,591,4,"sushi",5,2,56,1,2.46,1.4,126.8,5,6.74,5,642.6,11,11.1,8.8,565.6,17,5.6,3.8,237.4,8,0,0,0,0
"Swing 46 Jazz and Supper Club","American","349 W 46th St","2122629554",10036,40.760392,-73.989315,4,3,127,1025047,1010370010,"Clinton                                                                    ",3.5,226,3,"newamerican",5,2,56,1,2.46,1.4,126.8,5,6.04,4.4,492.6,10,11.8,9.4,715.6,18,5.6,3.8,237.4,8,0,0,0,0
"Bourbon Street Bar & Grille","Cajun","346 W 46th St","2122452030",10036,40.760359,-73.989286,4,3,121,1080885,1010360052,"Clinton                                                                    ",3.5,745,2,"cajun",5,2,56,1,2.46,1.4,126.8,5,6.74,5,642.6,11,11.1,8.8,565.6,17,5.6,3.8,237.4,8,0,0,0,0
"Ocha Sushi","Japanese","350 W 46th St","2125813198",10036,40.760395,-73.989369,4,3,121,1025023,1010360053,"Clinton                                                                    ",3.5,110,2,"sushi",5,2,56,1,2.46,1.4,126.8,5,6.04,4.4,492.6,10,11.2,9,681,17,6.2,4.2,272,9,0,0,0,0
"Becco","Italian","355 W 46th St","2123977597",10036,40.760441,-73.989438,4,3,127,1025046,1010370009,"Clinton                                                                    ",3.5,2368,3,"italian",5,2,56,1,2.375,1.5,25.5,4,7.5,5,680.5,10,14.25,11.5,802.5,17,8.25,5.75,457,10,0,0,0,0
"Capri Ristorante - CLOSED","Italian","358 W 46th St","2125825850",10036,40.760463,-73.989528,4,3,121,1025025,1010360057,"Clinton                                                                    ",NA,NA,NA,NA,5,2,56,1,2.375,1.5,25.5,4,7.5,5,680.5,10,8.75,7,539.75,10,13.75,10.25,719.75,17,0,0,0,0
"Paramount Cafe","Deli","1501 Broadway, Suite# 2009","2123916675",10036,40.757103,-73.986193,5,3,119,1024706,1010150029,"Midtown-Midtown South                                                      ",3.5,4,4,"delis",NA,NA,NA,0,3.41666666666667,2.5,288.5,6,11.0833333333333,8,552.833333333333,22,4.16666666666667,2.66666666666667,178.833333333333,7,2.91666666666667,2.66666666666667,290.166666666667,6,0,0,0,0
"Viva Pancho","Mexican","156 W 44th St","2129449747",10036,40.756746,-73.984634,5,4,119,1022622,1009960056,"Midtown-Midtown South                                                      ",3,32,2,"mexican",3.58333333333333,2.5,157.166666666667,6,3.54166666666667,2.33333333333333,175.416666666667,12,2.89166666666667,2.33333333333333,189.75,11,2.9,1.91666666666667,144.916666666667,12,1.45833333333333,1.33333333333333,145.083333333333,6,0,0,0,0
"Lattanzi Restaurant","Italian","359 W 46th St","2123150980",10036,40.760477,-73.989521,4,3,127,1025044,1010370007,"Clinton                                                                    ",3.5,196,3,"italian",5,2,56,1,2.375,1.5,25.5,4,7.5,5,680.5,10,8.75,7,539.75,10,13.75,10.25,719.75,17,0,0,0,0
"Aramark Services, Inc.","Catering","230 W 41st St",NA,10036,40.755802,-73.988482,5,3,113,1080830,1010120015,"Midtown-Midtown South                                                      ",NA,NA,NA,NA,4.5,3,8,1,3.375,2.5,199.25,4,5.325,3.5,482.25,7,14.3,10.25,594.5,18,4,2.75,230,5,5.375,4.75,459.5,7
"City Chow","Deli","1633 Broadway","2124450600",10019,40.761574,-73.983962,5,3,131,1024812,1010220043,"Midtown-Midtown South                                                      ",2,9,1,"newamerican",2.5,2,120,1,2.9,2.5,235.2,10,4.02,3.2,277,13,4.78,3,242.5,15,1.25,0.8,31.5,3,0,0,0,0
"Cosi","Deli","1633 Broadway","2123972674",10019,40.761574,-73.983962,5,3,131,1024812,1010220043,"Midtown-Midtown South                                                      ",NA,NA,NA,NA,2.5,2,120,1,2.9,2.5,235.2,10,4.02,3.2,277,13,4.78,3,242.5,15,1.25,0.8,31.5,3,0,0,0,0
"Mars 2112","American","1633 Broadway, Suite# B","2125822112",10019,40.761574,-73.983962,5,3,131,1024812,1010220043,"Midtown-Midtown South                                                      ",2.5,3,1,"amusementparks",2.5,2,120,1,2.9,2.5,235.2,10,4.02,3.2,277,13,4.78,3,242.5,15,1.25,0.8,31.5,3,0,0,0,0
"Bangkok House","Thai","360 W 46th St","2125415943",10036,40.76048,-73.989571,4,3,121,1025033,1010360157,"Clinton                                                                    ",3.5,189,2,"thai",5,2,56,1,2.375,1.5,25.5,4,7.5,5,680.5,10,8.75,7,539.75,10,13.75,10.25,719.75,17,0,0,0,0
"The House of Brews","American","363 W 46th St","2122450551",10036,40.76051,-73.9896,4,3,127,1025043,1010370006,"Clinton                                                                    ",4,191,2,"sportsbars",5,2,56,1,3.16666666666667,2,34,3,10,6.66666666666667,907.333333333333,11,11.6666666666667,9.33333333333333,719.666666666667,10,18.3333333333333,13.6666666666667,959.666666666667,17,0,0,0,0
"Tramonti","Italian","364 W 46th St","2129747464",10036,40.760513,-73.989651,4,3,121,1025027,1010360059,"Clinton                                                                    ",3.5,2368,3,"italian",5,2,56,1,3.16666666666667,2,34,3,8.83333333333333,5.66666666666667,766.333333333333,10,12.8333333333333,10.3333333333333,860.666666666667,11,18.3333333333333,13.6666666666667,959.666666666667,17,0,0,0,0
"Firebird Restaurant","Russian","365 W. 46th Street","2125860244",10036,40.760529,-73.98964,4,3,127,1025080,1010370105,"Clinton                                                                    ",3,180,4,"russian",5,2,56,1,3.16666666666667,2,34,3,8.83333333333333,5.66666666666667,766.333333333333,10,12.8333333333333,10.3333333333333,860.666666666667,11,18.3333333333333,13.6666666666667,959.666666666667,17,0,0,0,0
"Joshua Tree - CLOSED","American","368 W 46th St","2124891920",10036,40.760548,-73.989734,4,3,121,1025028,1010360060,"Clinton                                                                    ",2.5,36,2,"tradamerican",5,2,56,1,3.16666666666667,2,34,3,8.83333333333333,5.66666666666667,766.333333333333,10,12.8333333333333,10.3333333333333,860.666666666667,11,18.3333333333333,13.6666666666667,959.666666666667,17,0,0,0,0
"McDonald's","Fast Food","1560 Broadway, Suite# 1651","2129218900",10036,40.75886,-73.984843,5,4,125,1022661,1009990003,"Midtown-Midtown South                                                      ",2.5,59,1,"burgers",3.625,3,390.75,4,3.16923076923077,2.53846153846154,225.153846153846,13,4.86923076923077,3.30769230769231,276.769230769231,21,1.92307692307692,1.46153846153846,102.846153846154,7,0,0,0,0,0,0,0,0
"Ritz Bar & Lounge","Bar / Lounge","369 W 46th St","2129773884",10036,40.760562,-73.989723,4,3,127,1025079,1010370103,"Clinton                                                                    ",NA,NA,NA,NA,5,2,56,1,3.16666666666667,2,34,3,8.83333333333333,5.66666666666667,766.333333333333,10,12.8333333333333,10.3333333333333,860.666666666667,11,18.3333333333333,13.6666666666667,959.666666666667,17,0,0,0,0
"Deacon Brodie's Tavern","Bar / Lounge","370 W 46th St","2122621452",10036,40.760565,-73.989774,4,3,121,1025035,1010360161,"Clinton                                                                    ",4,66,2,"pubs",5,2,56,1,3.16666666666667,2,34,3,7.83333333333333,5,704.333333333333,9,13.8333333333333,11,922.666666666667,12,18.3333333333333,13.6666666666667,959.666666666667,17,0,0,0,0
"Pomaire","Chilean","371 W 46th St","2129563055",10036,40.760578,-73.989763,4,3,127,1025078,1010370102,"Clinton                                                                    ",4,42,2,"bakeries",5,2,56,1,3.16666666666667,2,34,3,8.83333333333333,5.66666666666667,766.333333333333,10,12.8333333333333,10.3333333333333,860.666666666667,11,18.3333333333333,13.6666666666667,959.666666666667,17,0,0,0,0
"Red Lobster","Seafood","5 Times Sq","2127306706",10036,40.755709,-73.987208,5,3,113,1024656,1010130029,"Midtown-Midtown South                                                      ",3,501,2,"seafood",4.5,3,8,1,3.33333333333333,2.33333333333333,121.333333333333,3,13.3333333333333,9,1002,13,15,11.3333333333333,669,14,6.33333333333333,4.33333333333333,404,6,5.16666666666667,4.66666666666667,424.333333333333,5
"Pig 'N' Whistle","American","165 W 47th St
store front","2123020112",10036,40.758744,-73.983504,5,4,125,1083718,1010000001,"Midtown-Midtown South                                                      ",3,111,2,"irish",2.5,2.5,31,2,3.34615384615385,2.46153846153846,179.461538461538,13,4.01538461538462,3,226.769230769231,17,2.6,1.84615384615385,198.538461538462,11,0,0,0,0,0,0,0,0
"Roxy Deli","Deli","1565 Broadway","2129213333",10036,40.759192,-73.985186,5,3,125,1024749,1010180139,"Midtown-Midtown South                                                      ",2.5,232,2,"delis",3.24,2.6,283.6,5,3.13333333333333,2.66666666666667,286.888888888889,9,9.03333333333333,6,444.333333333333,26,2.22222222222222,1.88888888888889,142.333333333333,6,0,0,0,0,0,0,0,0
"Blue Fin","Seafood","W Times Square
1567 Broadway","2129181400",10036,40.756582,-73.989637,5,3,113,1000000,1009950001,"Midtown-Midtown South                                                      ",3.5,842,3,"sushi",3.5,3,242,1,3.375,2.5,199.25,4,2.125,1.5,388.5,4,18,12.25,749.75,21,4.5,3.25,209,6,4.375,4.25,419,6
"The Whiskey","Bar / Lounge","1567 Broadway","2129307444",10036,40.759247,-73.985168,5,3,125,1024742,1010187501,"Midtown-Midtown South                                                      ",2.5,15,3,"lounges",3.5,2.75,286.5,4,3.12,2.6,276.8,10,7.48,4.9,357.1,24,2.35,2,152.3,7,0,0,0,0,0,0,0,0
"Aspen Social Club","American","157 W 47th St","2122217200",10036,40.758678,-73.983342,5,4,125,1022676,1010000007,"Midtown-Midtown South                                                      ",3,225,3,"lounges",3.2,2.4,79.6,5,3.34615384615385,2.46153846153846,179.461538461538,13,3.70769230769231,2.84615384615385,207.153846153846,16,2.90769230769231,2,218.153846153846,12,0,0,0,0,0,0,0,0
"Times Deli CafÌ©","Deli","158 W 44th St","2129441234",10036,40.756763,-73.98467,5,4,119,1022623,1009960156,"Midtown-Midtown South                                                      ",2.5,31,2,"delis",3.58333333333333,2.5,157.166666666667,6,3.54166666666667,2.33333333333333,175.416666666667,12,2.89166666666667,2.33333333333333,189.75,11,2.9,1.91666666666667,144.916666666667,12,1.45833333333333,1.33333333333333,145.083333333333,6,0,0,0,0
"Starbucks","Coffee","1585 Broadway","2125417515",10036,40.760216,-73.985334,5,3,125,1076193,1010197502,"Midtown-Midtown South                                                      ",3.5,108,2,"coffee",2.875,2.25,220,4,3.01538461538462,2.30769230769231,190.153846153846,13,4.94615384615385,3.53846153846154,339.692307692308,21,2,1.46153846153846,74.9230769230769,7,0,0,0,0,0,0,0,0
"vacant (former starbucks)","Coffee","1600 Broadway","2122451936",10019,40.76035,-73.984713,5,4,125,1087187,1010207502,"Midtown-Midtown South                                                      ",NA,NA,NA,NA,3.125,2.5,172.5,4,3.07,2.4,217.1,10,7.03,5.1,424.7,22,2.85,2,144.4,9,0,0,0,0,0,0,0,0
"Spotlight Times Square","American","1604-1610 Broadway","2129776773",10019,40.760487,-73.984648,5,4,125,1024779,1010200038,"Midtown-Midtown South                                                      ",3,186,2,"hotels",3,2.25,158.25,4,3.16666666666667,2.44444444444444,211,9,7.72222222222222,5.66666666666667,495,22,3,2.11111111111111,166.666666666667,9,0.5,0.333333333333333,0.888888888888889,1,0,0,0,0
"San Leone","Italian","1674 Broadway","2122651414",10019,40.762861,-73.983109,5,4,131,1024831,1010240131,"Midtown-Midtown South                                                      ",3.5,10,1,"pizza",2.83333333333333,3,344.666666666667,3,2.83333333333333,2.66666666666667,286.5,6,4.5,3.16666666666667,211.666666666667,8,6.86666666666667,5.16666666666667,420.833333333333,13,6.05,3.83333333333333,349.666666666667,12,1.33333333333333,1,41.6666666666667,2
"Ellen's Stardust Diner","American","1650 Broadway","2129565151",10019,40.761964,-73.983684,5,4,131,1024811,1010220035,"Midtown-Midtown South                                                      ",3.5,1320,2,"diners",2.25,2,294,2,3.05,2.5,242.6,10,3.52,2.9,194.6,12,3.83,2.4,239.3,12,2.55,1.7,109.7,7,0,0,0,0
"New York Bagel Company","Deli","1674 Broadway","2123977720",10019,40.762861,-73.983109,5,4,131,1024831,1010240131,"Midtown-Midtown South                                                      ",NA,NA,NA,NA,2.83333333333333,3,344.666666666667,3,2.83333333333333,2.66666666666667,286.5,6,4.5,3.16666666666667,211.666666666667,8,6.86666666666667,5.16666666666667,420.833333333333,13,6.05,3.83333333333333,349.666666666667,12,1.33333333333333,1,41.6666666666667,2
"Crumbs","Dessert","1675 Broadway","2127949800",10019,40.762963,-73.983073,5,3,131,1076199,1010240015,"Midtown-Midtown South                                                      ",3.5,109,2,"bakeries",2.83333333333333,3,344.666666666667,3,2.83333333333333,2.66666666666667,286.5,6,4.5,3.16666666666667,211.666666666667,8,6.86666666666667,5.16666666666667,420.833333333333,13,6.05,3.83333333333333,349.666666666667,12,1.33333333333333,1,41.6666666666667,2
"Olive Garden Italian Restaurant","Italian","2 Times Sq","2123333254",10036,40.75931,-73.984857,5,4,125,1024757,1010197501,"Midtown-Midtown South                                                      ",3,522,2,"italian",3.5,2.75,286.5,4,3.01818181818182,2.54545454545455,252.454545454545,11,6.61818181818182,4.27272727272727,323.818181818182,23,2.13636363636364,1.81818181818182,138.454545454545,7,0,0,0,0,0,0,0,0
"Playwright Bar And Restaurant","American","202 W 49th St","2122629263",10019,40.760559,-73.983991,5,4,125,1024786,1010200136,"Midtown-Midtown South                                                      ",3.5,264,2,"tradamerican",3,3,273,1,3.13636363636364,2.45454545454545,224,11,5.33636363636364,4.09090909090909,306,19,2.89090909090909,1.81818181818182,184,10,0.409090909090909,0.272727272727273,0.727272727272727,1,0,0,0,0
"Dean & Deluca","Deli","620 Eighth Ave","2122210308",10018,40.756039,-73.990651,5,3,113,1087186,1010127501,"Midtown-Midtown South                                                      ",3,223,2,"cafes",NA,NA,NA,0,3.5,3,242,1,12.8,8,1087,5,40.2,29,2650,12,49,34,1925,15,24,21,1958,8
"Subway","Fast Food","214 W 50th St","2122651822",10019,40.761585,-73.984456,5,3,125,1024803,1010210048,"Midtown-Midtown South                                                      ",3,9,1,"sandwiches",3,2,130.666666666667,3,3.05,2.4,187.7,10,3.87,3.3,324.5,13,4.78,3,242.5,15,1.25,0.8,31.5,3,0,0,0,0
"Europa CafÌ©","Deli","218 W 42nd St","2126641820x14",10036,40.756382,-73.987789,5,3,113,1024662,1010130041,"Midtown-Midtown South                                                      ",NA,NA,NA,NA,4,3,125,2,3.375,2.5,199.25,4,10.875,7.5,810.75,14,12.125,8.5,466,15,3.125,2.25,211.75,4,2.875,3,277.75,4
"Uncle A's Mini Mart","Deli","220 W 41st St","2129217185",10036,40.755717,-73.98828,5,3,113,1080831,1010120042,"Midtown-Midtown South                                                      ",NA,NA,NA,NA,4.5,3,8,1,3.375,2.5,199.25,4,5.325,3.5,482.25,7,14.3,10.25,594.5,18,4,2.75,230,5,5.375,4.75,459.5,7
"The Alicart Restaurant Group","Catering","1501 Broadway","2126759790",10036,40.757103,-73.986193,5,3,119,1024706,1010150029,"Midtown-Midtown South                                                      ",3.5,1311,2,"bbq",NA,NA,NA,0,3.41666666666667,2.5,288.5,6,11.0833333333333,8,552.833333333333,22,4.16666666666667,2.66666666666667,178.833333333333,7,2.91666666666667,2.66666666666667,290.166666666667,6,0,0,0,0
"Da Marino","Italian","220 W 49th St","2125416601",10019,40.760987,-73.984987,5,3,125,1024781,1010200049,"Midtown-Midtown South                                                      ",4,292,3,"italian",2.9,2.2,150.6,5,3.22222222222222,2.33333333333333,211.888888888889,9,6.24444444444444,5,400.777777777778,18,4.42222222222222,2.88888888888889,260,13,0.5,0.333333333333333,0.888888888888889,1,0,0,0,0
"Danny's Deli","Italian","224 W 47th St","2129211200",10036,40.759697,-73.985818,5,3,125,1024743,1010180044,"Midtown-Midtown South                                                      ",2.5,31,1,"delis",2.8,2.25,279,4,3.09230769230769,2.38461538461538,238.615384615385,13,5.29230769230769,3.61538461538462,268.846153846154,22,1.57692307692308,1.30769230769231,97.3076923076923,6,0,0,0,0,0,0,0,0
"Lp Food & Beverage Inc/Oceo","Catering","224 W 49th St","2122626236",10019,40.761014,-73.985052,5,3,125,1024782,1010200051,"Midtown-Midtown South                                                      ",2,1,1,NA,2.9,2.2,150.6,5,3.22222222222222,2.33333333333333,211.888888888889,9,6.24444444444444,5,400.777777777778,18,4.42222222222222,2.88888888888889,260,13,0.5,0.333333333333333,0.888888888888889,1,0,0,0,0
"Oceo","Afghan","224 West 49th Street","2122626236",10019,40.761014,-73.985052,5,3,125,1024782,1010200051,"Midtown-Midtown South                                                      ",2,1,1,NA,2.9,2.2,150.6,5,3.22222222222222,2.33333333333333,211.888888888889,9,6.24444444444444,5,400.777777777778,18,4.42222222222222,2.88888888888889,260,13,0.5,0.333333333333333,0.888888888888889,1,0,0,0,0
"Serafina @ Time Hotel","Italian","224 W 49th St","212",10019,40.761014,-73.985052,5,3,125,1024782,1010200051,"Midtown-Midtown South                                                      ",3,167,3,"italian",2.9,2.2,150.6,5,3.22222222222222,2.33333333333333,211.888888888889,9,6.24444444444444,5,400.777777777778,18,4.42222222222222,2.88888888888889,260,13,0.5,0.333333333333333,0.888888888888889,1,0,0,0,0
"Gallagher's Steak House","Steakhouse","228 W. 52nd Street","2122455336",10019,40.762911,-73.98372,5,3,131,1024819,1010230048,"Midtown-Midtown South                                                      ",4,723,3,"steak",3,3,198.5,2,2.83333333333333,2.5,297.333333333333,6,5,3.66666666666667,256.333333333333,9,6.36666666666667,4.83333333333333,365.333333333333,12,6.05,3.83333333333333,349.666666666667,12,1.33333333333333,1,41.6666666666667,2
"Carmine's","Italian","200 W 44th St","2122213800",10036,40.757405,-73.98619,5,3,119,1024706,1010150029,"Midtown-Midtown South                                                      ",4,2797,2,"italian",NA,NA,NA,0,3.11666666666667,2.33333333333333,330.166666666667,6,11.8833333333333,8.66666666666667,556.666666666667,23,4,2.5,211.333333333333,7,2.58333333333333,2.33333333333333,212.166666666667,5,0,0,0,0
"Carvel","Dessert","1501 Broadway","2123916675",10036,40.757103,-73.986193,5,3,119,1024706,1010150029,"Midtown-Midtown South                                                      ",3.5,4,4,"delis",NA,NA,NA,0,3.41666666666667,2.5,288.5,6,11.0833333333333,8,552.833333333333,22,4.16666666666667,2.66666666666667,178.833333333333,7,2.91666666666667,2.66666666666667,290.166666666667,6,0,0,0,0
"Coldstone Creamery","Dessert","1501 Broadway, Suite 1604","2123981882",10036,40.757103,-73.986193,5,3,119,1024706,1010150029,"Midtown-Midtown South                                                      ",NA,NA,NA,NA,NA,NA,NA,0,3.41666666666667,2.5,288.5,6,11.0833333333333,8,552.833333333333,22,4.16666666666667,2.66666666666667,178.833333333333,7,2.91666666666667,2.66666666666667,290.166666666667,6,0,0,0,0
"Havana Central","Cuban","151 West 46th Street","2123987440",10036,40.757998,-73.983667,5,4,125,1022663,1009990009,"Midtown-Midtown South                                                      ",3.5,1538,2,"cuban",3.25,2.25,88.25,8,3.375,2.5,182.1875,16,1.7,1.1875,115.625,9,3.01875,2.25,193.5625,16,0,0,0,0,0,0,0,0
"Domino's Pizza","Pizza","230 W 41st St","2129440400",10036,40.755802,-73.988482,5,3,113,1080830,1010120015,"Midtown-Midtown South                                                      ",2.5,54,1,"pizza",4.5,3,8,1,3.375,2.5,199.25,4,5.325,3.5,482.25,7,14.3,10.25,594.5,18,4,2.75,230,5,5.375,4.75,459.5,7
"Hurley's Steak and Seafood","Steakhouse","232 W 48th St","2127658981",10036,40.760441,-73.985622,5,3,125,1024770,1010190054,"Midtown-Midtown South                                                      ",3.5,167,2,"pubs",3,2.2,193.2,5,3.01538461538462,2.30769230769231,190.153846153846,13,4.21538461538462,3.15384615384615,320.538461538462,18,2.73076923076923,1.84615384615385,94.0769230769231,10,0,0,0,0,0,0,0,0
"Pinnacle Bar","American","234 W 42nd St
25th Floor","2126422607",10036,40.756747,-73.988659,5,3,113,1024665,1010130012,"Midtown-Midtown South                                                      ",2.5,6,2,"lounges",3,2.33333333333333,263,3,3.375,2.5,199.25,4,5.875,4,550.25,8,17.125,12,726.5,21,3.125,2.25,211.75,4,2.875,3,277.75,4
"Applebee's Neighborhood Grill and Bar","American","234 W 42nd St","9147772331Ext.116",10036,40.756747,-73.988659,5,3,113,1024665,1010130012,"Midtown-Midtown South                                                      ",2,387,2,"tradamerican",3,2.33333333333333,263,3,3.375,2.5,199.25,4,5.875,4,550.25,8,17.125,12,726.5,21,3.125,2.25,211.75,4,2.875,3,277.75,4
"Chock full o' Nuts Cafe","Deli","234 W 42nd St","2127645969",10036,40.756747,-73.988659,5,3,113,1024665,1010130012,"Midtown-Midtown South                                                      ",NA,NA,NA,NA,3,2.33333333333333,263,3,3.375,2.5,199.25,4,5.875,4,550.25,8,17.125,12,726.5,21,3.125,2.25,211.75,4,2.875,3,277.75,4
"Juniors Restaurant","American","1515 Broadway","2123022000",10036,40.757636,-73.985804,5,3,119,1024714,1010160036,"Midtown-Midtown South                                                      ",4,3343,2,"tradamerican",3.5,3,750,1,3.27,2.5,253.6,10,6.78,4.7,331.2,22,1.35,0.9,74.1,4,1.55,1.4,127.3,5,0,0,0,0
"Dippin' Dots","Dessert","234 W 42nd St",NA,10036,40.756747,-73.988659,5,3,113,1024665,1010130012,"Midtown-Midtown South                                                      ",NA,NA,NA,NA,3,2.33333333333333,263,3,3.375,2.5,199.25,4,5.875,4,550.25,8,17.125,12,726.5,21,3.125,2.25,211.75,4,2.875,3,277.75,4
"Manchu WOK","Chinese","234 W 42nd St",NA,10036,40.756747,-73.988659,5,3,113,1024665,1010130012,"Midtown-Midtown South                                                      ",NA,NA,NA,NA,3,2.33333333333333,263,3,3.375,2.5,199.25,4,5.875,4,550.25,8,17.125,12,726.5,21,3.125,2.25,211.75,4,2.875,3,277.75,4
"Ranch 1","Fast Food","234 W 42nd St",NA,10036,40.756747,-73.988659,5,3,113,1024665,1010130012,"Midtown-Midtown South                                                      ",NA,NA,NA,NA,3,2.33333333333333,263,3,3.375,2.5,199.25,4,5.875,4,550.25,8,17.125,12,726.5,21,3.125,2.25,211.75,4,2.875,3,277.75,4
"EASY INTERNET CAFE TIME SQUARE LLC","Deli","258 W 42nd St",NA,10036,40.756895,-73.989009,5,3,113,1024669,1010130057,"Midtown-Midtown South                                                      ",NA,NA,NA,NA,3.5,3,337.5,2,3.26,2.2,265.8,5,4.54,3.2,307.2,8,13.3,9.4,607.8,20,2.5,1.8,169.4,4,2.3,2.4,222.2,4
"Howard Johnson's Cafe'","Deli","1551-1553 Broadway",NA,10036,40.758805,-73.985312,5,3,125,1083727,1010180026,"Midtown-Midtown South                                                      ",NA,NA,NA,NA,3.175,2.75,423,4,3.15,2.625,288.625,8,10.2875,6.875,475.5,26,2.75,2.375,218.625,7,0,0,0,0,0,0,0,0
"Bar 10","Bar / Lounge","270 W 43rd St","2122012764",10036,40.757482,-73.988309,5,3,119,1087141,1010140058,"Midtown-Midtown South                                                      ",2.5,20,3,"bars",3,2.33333333333333,263,3,2.36,1.6,264.2,5,10.74,7.8,633.2,16,8.5,5.8,307.4,13,4.3,3.8,367.6,7,0,0,0,0
"Dale & Thomas Popcorn","Other","1592 Broadway","2125811872",10036,40.759963,-73.984883,5,4,125,1024757,1010197501,"Midtown-Midtown South                                                      ",4.5,17,2,"gourmet",3.2,2.6,252,5,3.1,2.5,247.833333333333,12,6.65,4.75,381.083333333333,26,1.04166666666667,0.666666666666667,26.25,3,0,0,0,0,0,0,0,0
"Encore Restaurant @ Marriott Marquis","American","1535 Broadway
5th Floor","2127048849",10036,40.758267,-73.985468,5,3,119,1024727,1010170029,"Midtown-Midtown South                                                      ",3.5,750,3,"hotels",3.5,3,750,1,3.32307692307692,2.61538461538462,246.153846153846,13,4.98461538461538,3.23076923076923,217.230769230769,21,1.65384615384615,1.46153846153846,141.384615384615,7,0,0,0,0,0,0,0,0
"Crown Deli","Italian","1678 Broadway","2122651414",10019,40.762977,-73.983041,5,4,131,1024831,1010240131,"Midtown-Midtown South                                                      ",3.5,10,1,"pizza",2.83333333333333,3,344.666666666667,3,2.83333333333333,2.66666666666667,286.5,6,4.5,3.16666666666667,211.666666666667,8,6.03333333333333,4.83333333333333,411.5,12,6.88333333333333,4.16666666666667,359,13,1.33333333333333,1,41.6666666666667,2
"The Two Times Square Restaurant","American","714 Seventh Ave","2122615200",10036,40.759581,-73.984366,5,4,125,1024757,1010197501,"Midtown-Midtown South                                                      ",4,254,2,"lounges",3.66666666666667,3,271,3,3.05833333333333,2.5,238.583333333333,12,6.35833333333333,4.5,355,24,1.375,0.916666666666667,61.5833333333333,5,0,0,0,0,0,0,0,0
"The View Restaurant & Lounge @ Marriott Marquis","American","1535 Broadway
48th Floor","2127048849",10036,40.758267,-73.985468,5,3,119,1024727,1010170029,"Midtown-Midtown South                                                      ",3,829,4,"lounges",3.5,3,750,1,3.32307692307692,2.61538461538462,246.153846153846,13,4.98461538461538,3.23076923076923,217.230769230769,21,1.65384615384615,1.46153846153846,141.384615384615,7,0,0,0,0,0,0,0,0
"Applebee's","American","205 W 50th St","2122624022",10019,40.761382,-73.983926,5,4,131,1024810,1010220026,"Midtown-Midtown South                                                      ",2,192,2,"tradamerican",2.5,2,120,1,2.94444444444444,2.44444444444444,190.555555555556,9,4.74444444444444,3.88888888888889,378.555555555556,14,5.31111111111111,3.33333333333333,269.444444444444,15,1.38888888888889,0.888888888888889,35,3,0,0,0,0
"Social Bar NYC & Latitude Bar Grill","American","795 Eighth Avenue","2124590643",10019,40.761212,-73.9869,4,3,127,1025142,1010390030,"Clinton                                                                    ",3.5,274,2,"newamerican",4,2,255,1,2.875,2,139.25,8,5.4375,4.125,477.5,14,6.75,5.125,356.875,17,1.125,0.625,9.125,2,0,0,0,0
"The Long Room","Bar / Lounge","120 West 44th St.","2129973933",10036,40.756461,-73.983952,5,4,119,1022616,1009960043,"Midtown-Midtown South                                                      ",3.5,260,2,"irish",3.5,2.25,127.375,8,3.54545454545455,2.27272727272727,123.181818181818,11,3.47272727272727,2.81818181818182,275.181818181818,12,2.70909090909091,1.90909090909091,153,11,2.04545454545455,1.63636363636364,163.363636363636,7,0,0,0,0
"Scott Alling-Convivial Catering","Catering","130 W 42nd St",NA,10036,40.755278,-73.985172,5,4,113,1022577,1009940045,"Midtown-Midtown South                                                      ",NA,NA,NA,NA,4.5,2,65,1,3.75,2.5,161.75,4,10.25,7,563.75,12,8.5,7,604.75,13,6,3.75,317,7,3.875,3.5,318.25,5
"Gingers Restaurant","American","1568 Broadway","2124036371",10036,40.759055,-73.98471,5,4,125,1000000,1009990061,"Midtown-Midtown South                                                      ",3,16,2,"newamerican",3.66666666666667,3,271,3,3.16923076923077,2.53846153846154,225.153846153846,13,4.6,3.07692307692308,258.153846153846,20,2.19230769230769,1.69230769230769,121.461538461538,8,0,0,0,0,0,0,0,0
"Scott Alliang-Demonstration Room","Catering","130 W 42nd St",NA,10036,40.755278,-73.985172,5,4,113,1022577,1009940045,"Midtown-Midtown South                                                      ",NA,NA,NA,NA,4.5,2,65,1,3.75,2.5,161.75,4,10.25,7,563.75,12,8.5,7,604.75,13,6,3.75,317,7,3.875,3.5,318.25,5
"Blockheads","Mexican","825 Eighth Ave",NA,10019,40.762074,-73.986275,4,3,127,1076203,1010400029,"Clinton                                                                    ",4,1547,3,"mexican",NA,NA,NA,0,3.25,2,149.5,6,7.2,6,565.333333333333,14,6.8,4.83333333333333,435.333333333333,14,4.33333333333333,3,160.166666666667,7,0,0,0,0
"David's Potbelly Stove Cafe","Deli","1501 Broadway","2126269000",10036,40.757103,-73.986193,5,3,119,1024706,1010150029,"Midtown-Midtown South                                                      ",NA,NA,NA,NA,NA,NA,NA,0,3.41666666666667,2.5,288.5,6,11.0833333333333,8,552.833333333333,22,4.16666666666667,2.66666666666667,178.833333333333,7,2.91666666666667,2.66666666666667,290.166666666667,6,0,0,0,0
"Time Square Deli","Deli","1501 Broadway","2128407983",10036,40.757103,-73.986193,5,3,119,1024706,1010150029,"Midtown-Midtown South                                                      ",4.5,3,1,"pizza",NA,NA,NA,0,3.41666666666667,2.5,288.5,6,11.0833333333333,8,552.833333333333,22,4.16666666666667,2.66666666666667,178.833333333333,7,2.91666666666667,2.66666666666667,290.166666666667,6,0,0,0,0
"Baja Fresh Mexican Grill","Mexican","1441 Broadway","2127649084",10018,40.754707,-73.986753,5,3,113,1022569,1009930055,"Midtown-Midtown South                                                      ",3.5,72,2,"mexican",NA,NA,NA,0,4.5,3,8,1,37,25,1808,11,38.5,29,3098,13,28,19,1110,9,21.5,19,1838,7
"Bobby Van's Steakhouse","American","120 West 45th Street",NA,10036,40.757117,-73.983544,5,4,119,1069581,1009970041,"Midtown-Midtown South                                                      ",3,170,3,"steak",3.45,2.3,129,10,3.38461538461538,2.30769230769231,109,13,1.9,1.53846153846154,196.538461538462,8,3.33076923076923,2.46153846153846,202.923076923077,15,1.34615384615385,1,96.3076923076923,5,0,0,0,0
"F & H Liquor Center Inc","Consumables","810 7th Ave","2122474991",10019,40.762639,-73.982146,5,4,131,1024828,1010240038,"Midtown-Midtown South                                                      ",NA,NA,NA,NA,2.33333333333333,2.66666666666667,447,3,2.91666666666667,2.83333333333333,279.333333333333,6,3.75,2.66666666666667,176.333333333333,7,6.7,5.16666666666667,454,13,6.88333333333333,4.16666666666667,359,13,1.33333333333333,1,41.6666666666667,2
"Martini's Restaurant","Italian","810 7th Ave","2127671146",10019,40.762639,-73.982146,5,4,131,1024828,1010240038,"Midtown-Midtown South                                                      ",4,723,3,"steak",2.33333333333333,2.66666666666667,447,3,2.91666666666667,2.83333333333333,279.333333333333,6,3.75,2.66666666666667,176.333333333333,7,6.7,5.16666666666667,454,13,6.88333333333333,4.16666666666667,359,13,1.33333333333333,1,41.6666666666667,2
"Montenapo Restaurant","Italian","250 West 41st Street","2127647663",10036,40.755973,-73.988886,5,3,113,1087186,1010127501,"Midtown-Midtown South                                                      ",4,20,3,"italian",4,3,125,2,3.375,2.5,199.25,4,3.45,2.25,423.5,5,17.175,12,717,21,3,2.25,166.25,4,5.375,4.75,459.5,7
"Starbucks","Coffee","1656 Broadway","2127048937",10019,40.762257,-73.983492,5,4,131,1024818,1010230029,"Midtown-Midtown South                                                      ",2.5,32,1,"coffee",2.66666666666667,2.66666666666667,288.333333333333,3,3.05555555555556,2.44444444444444,239.222222222222,9,3.27777777777778,2.66666666666667,210.222222222222,9,4.88888888888889,3.22222222222222,263.666666666667,14,2.66666666666667,1.88888888888889,159.555555555556,8,0.5,0.333333333333333,0.888888888888889,1
"Aureole","American","1 Bryant Park","2123191660",10036,40.755182,-73.98388,5,4,119,1087268,1009950033,"Midtown-Midtown South                                                      ",4,768,4,"newamerican",NA,NA,NA,0,3.75,2.5,161.75,4,9.25,6.5,382,11,7.75,6,753,10,8.5,6,369.75,12,3.125,2.75,299,4
"Dunhill Cafe","American","109 W 45th St","2129448484",10036,40.757026,-73.983291,5,4,119,1022641,1009980026,"Midtown-Midtown South                                                      ",3.5,43,1,"tradamerican",3.5,2.22222222222222,104.777777777778,9,3.38461538461538,2.30769230769231,109,13,1.66923076923077,1.30769230769231,175.538461538462,7,3.56153846153846,2.69230769230769,223.923076923077,16,1.34615384615385,1,96.3076923076923,5,0,0,0,0
"Bubba Gump Shrimp Co.","Seafood","209 Avenida Fabricante
Suite 200","2123917100",NA,NA,NA,NA,NA,NA,NA,NA,NA,3.5,798,2,"seafood",NA,NA,NA,NA,NA,NA,NA,NA,NA,NA,NA,NA,NA,NA,NA,NA,NA,NA,NA,NA,NA,NA,NA,NA
"Cranberry Gourmet","Deli","115 W 45th St","2127309495",10036,40.757078,-73.983411,5,4,119,1022640,1009980024,"Midtown-Midtown South                                                      ",3.5,153,1,"delis",3.45,2.3,129,10,3.38461538461538,2.30769230769231,109,13,1.9,1.53846153846154,196.538461538462,8,3.33076923076923,2.46153846153846,202.923076923077,15,1.34615384615385,1,96.3076923076923,5,0,0,0,0
"Haggis Inc","Scottish","120 W 44th St","2128408413",10036,40.756461,-73.983952,5,4,119,1022616,1009960043,"Midtown-Midtown South                                                      ",3.5,397,2,"pubs",3.5,2.25,127.375,8,3.54545454545455,2.27272727272727,123.181818181818,11,3.47272727272727,2.81818181818182,275.181818181818,12,2.70909090909091,1.90909090909091,153,11,2.04545454545455,1.63636363636364,163.363636363636,7,0,0,0,0
"Saju French Bistro @ Hotel Mela","French","120 W 44th St","212977saju",10036,40.756461,-73.983952,5,4,119,1022616,1009960043,"Midtown-Midtown South                                                      ",NA,NA,NA,NA,3.5,2.25,127.375,8,3.54545454545455,2.27272727272727,123.181818181818,11,3.47272727272727,2.81818181818182,275.181818181818,12,2.70909090909091,1.90909090909091,153,11,2.04545454545455,1.63636363636364,163.363636363636,7,0,0,0,0
"N Valenti Restaurant Associates","Catering","120 W 45th St","2127898145",10036,40.757117,-73.983544,5,4,119,1069581,1009970041,"Midtown-Midtown South                                                      ",NA,NA,NA,NA,3.45,2.3,129,10,3.38461538461538,2.30769230769231,109,13,1.9,1.53846153846154,196.538461538462,8,3.33076923076923,2.46153846153846,202.923076923077,15,1.34615384615385,1,96.3076923076923,5,0,0,0,0
"Patina Restaurant Group","Catering","120 W 45th St","2127898100",10036,40.757117,-73.983544,5,4,119,1069581,1009970041,"Midtown-Midtown South                                                      ",NA,NA,NA,NA,3.45,2.3,129,10,3.38461538461538,2.30769230769231,109,13,1.9,1.53846153846154,196.538461538462,8,3.33076923076923,2.46153846153846,202.923076923077,15,1.34615384615385,1,96.3076923076923,5,0,0,0,0
"Connolly's Pub And Restaurant","Bar / Lounge","121 W 45th St","2125975126",10036,40.75713,-73.983533,5,4,119,1022638,1009980021,"Midtown-Midtown South                                                      ",3.5,307,2,"burgers",3.45,2.3,129,10,3.38461538461538,2.30769230769231,109,13,1.9,1.53846153846154,196.538461538462,8,3.33076923076923,2.46153846153846,202.923076923077,15,1.34615384615385,1,96.3076923076923,5,0,0,0,0
"Cafe Un Deux Trois","French","123 W 44th St","2123544148",10036,40.756491,-73.983977,5,4,119,1022629,1009970019,"Midtown-Midtown South                                                      ",3.5,482,2,"french",3.5,2.25,127.375,8,3.54545454545455,2.27272727272727,123.181818181818,11,3.47272727272727,2.81818181818182,275.181818181818,12,2.70909090909091,1.90909090909091,153,11,2.04545454545455,1.63636363636364,163.363636363636,7,0,0,0,0
"The Perfect Pint","Bar / Lounge","123 W 45th St","2123541099",10036,40.757147,-73.983573,5,4,119,1022657,1009980120,"Midtown-Midtown South                                                      ",3.5,323,2,"tradamerican",3.45,2.3,129,10,3.38461538461538,2.30769230769231,109,13,1.9,1.53846153846154,196.538461538462,8,3.71538461538462,2.61538461538462,207.230769230769,16,0.961538461538462,0.846153846153846,92,4,0,0,0,0
"Duvel Bar Rest","Belgian","125 W 43rd St","2127680200",10036,40.75586,-73.984418,5,4,119,1022614,1009960020,"Midtown-Midtown South                                                      ",3.5,466,2,"pubs",3.75,2.5,161.75,4,3.5,2.25,127.375,8,5.275,4.125,360.875,13,3.2875,2.375,210.875,10,3.625,2.875,263.375,9,0.5,0.25,20.25,1
"Trattoria Dopo Teatro","Italian","125 W 44th St","2128692849",10036,40.756505,-73.984017,5,4,119,1022629,1009970019,"Midtown-Midtown South                                                      ",3,116,2,"italian",3.5,2.25,127.375,8,3.54545454545455,2.27272727272727,123.181818181818,11,3.47272727272727,2.81818181818182,275.181818181818,12,2.70909090909091,1.90909090909091,153,11,2.04545454545455,1.63636363636364,163.363636363636,7,0,0,0,0
"H&B Heartland Burgers","American","127 W 43rd St","6463660235",10036,40.755873,-73.984454,5,4,119,1022613,1009960014,"Midtown-Midtown South                                                      ",3.5,532,2,"tradamerican",3.75,2.5,161.75,4,3.5,2.25,127.375,8,5.275,4.125,360.875,13,3.2875,2.375,210.875,10,3.625,2.875,263.375,9,0.5,0.25,20.25,1
"Heartland Brewery","American","127 W 43rd St","2123660235",10036,40.755873,-73.984454,5,4,119,1022613,1009960014,"Midtown-Midtown South                                                      ",3.5,532,2,"tradamerican",3.75,2.5,161.75,4,3.5,2.25,127.375,8,5.275,4.125,360.875,13,3.2875,2.375,210.875,10,3.625,2.875,263.375,9,0.5,0.25,20.25,1
"Cafe O","American","130 W 42nd St","2128524900",10036,40.755278,-73.985172,5,4,113,1022577,1009940045,"Midtown-Midtown South                                                      ",3,37,1,"delis",4.5,2,65,1,3.75,2.5,161.75,4,10.25,7,563.75,12,8.5,7,604.75,13,6,3.75,317,7,3.875,3.5,318.25,5
"NIOS Restaurant @ Muse Hotel","American","130 W 46th St","2124852400",10036,40.757814,-73.98328,5,4,119,1022645,1009980047,"Midtown-Midtown South                                                      ",4,208,3,"hotels",3.22222222222222,2.22222222222222,85.5555555555556,9,3.32142857142857,2.42857142857143,167.785714285714,14,1.97857142857143,1.42857142857143,135.5,9,3.66428571428571,2.78571428571429,246.714285714286,17,0.285714285714286,0.142857142857143,11.5714285714286,1,0,0,0,0
"O'Brien's Bar and Grill","Bar / Lounge","134 W 46th St","2123911516",10036,40.757847,-73.98336,5,4,119,1022646,1009980050,"Midtown-Midtown South                                                      ",3.5,131,2,"pubs",3.22222222222222,2.22222222222222,85.5555555555556,9,3.32142857142857,2.42857142857143,167.785714285714,14,1.97857142857143,1.42857142857143,135.5,9,3.66428571428571,2.78571428571429,246.714285714286,17,0.285714285714286,0.142857142857143,11.5714285714286,1,0,0,0,0
"Pronto Pizza-Lemlen Pizza","Pizza","135 W 41st St","2122218886",10036,40.754691,-73.985797,5,4,113,1022577,1009940045,"Midtown-Midtown South                                                      ",3.5,90,1,"pizza",NA,NA,NA,0,4.5,2,65,1,40.5,29,2501,12,35,26,2348,12,28,19,1110,9,21.5,19,1838,7
"Bobby Vans","Steakhouse","135 W 50th St","2129575050",10020,40.760374,-73.981533,5,4,131,1022708,1010030005,"Midtown-Midtown South                                                      ",3.5,265,3,"steak",NA,NA,NA,0,3.5,3,87,2,32.5,25.5,2053.5,21,18.1,12.5,1098,11,10.65,6.5,692.5,7,0,0,0,0
"Bocca To Go Cucian Italiana","Italian","135 W 50th St","2125823000",10020,40.760374,-73.981533,5,4,131,1022708,1010030005,"Midtown-Midtown South                                                      ",3.5,124,2,"sushi",NA,NA,NA,0,3.5,3,87,2,32.5,25.5,2053.5,21,18.1,12.5,1098,11,10.65,6.5,692.5,7,0,0,0,0
"Pret a Manger","Deli","135 W 50th St","2124896458",10020,40.760374,-73.981533,5,4,131,1022708,1010030005,"Midtown-Midtown South                                                      ",4,121,1,"sandwiches",NA,NA,NA,0,3.5,3,87,2,32.5,25.5,2053.5,21,18.1,12.5,1098,11,10.65,6.5,692.5,7,0,0,0,0
"Dave & Buster's","American","2481 Manana Drive","6464952015",NA,NA,NA,NA,NA,NA,NA,NA,NA,3,707,2,"tradamerican",NA,NA,NA,NA,NA,NA,NA,NA,NA,NA,NA,NA,NA,NA,NA,NA,NA,NA,NA,NA,NA,NA,NA,NA
"Qdoba Mexican Grill","Mexican","135 W 50th St","2127670040",10020,40.760374,-73.981533,5,4,131,1022708,1010030005,"Midtown-Midtown South                                                      ",3,36,2,"mexican",NA,NA,NA,0,3.5,3,87,2,32.5,25.5,2053.5,21,18.1,12.5,1098,11,10.65,6.5,692.5,7,0,0,0,0
"Moda @ Flatotel","Italian","135 W 52nd St","2128879880",10019,40.761736,-73.980883,5,4,131,1023160,1010057501,"Midtown-Midtown South                                                      ",2.5,15,3,"italian",3,3,77,1,2.875,2.75,319.75,4,6.25,5.25,314.5,8,14.175,10,823.25,18,7.075,4.25,445.5,9,2,1.5,62.5,2
"Margon Restaurant Co.","Cuban","136 W 46th St","2123545013",10036,40.757863,-73.9834,5,4,119,1022647,1009980051,"Midtown-Midtown South                                                      ",4,631,1,"cuban",3.22222222222222,2.22222222222222,85.5555555555556,9,3.32142857142857,2.42857142857143,167.785714285714,14,2.22857142857143,1.57142857142857,141.642857142857,10,3.41428571428571,2.64285714285714,240.571428571429,16,0.285714285714286,0.142857142857143,11.5714285714286,1,0,0,0,0
"Subway","Fast Food","136 W 44th St","2128400792",10036,40.756587,-73.984255,5,4,119,1022618,1009960049,"Midtown-Midtown South                                                      ",2.5,4,1,"sandwiches",3.5,2.25,127.375,8,3.54545454545455,2.27272727272727,123.181818181818,11,3.47272727272727,2.81818181818182,275.181818181818,12,3.16363636363636,2.09090909090909,158.090909090909,12,1.59090909090909,1.45454545454545,158.272727272727,6,0,0,0,0
"Minar Indian Restaurant","Indian","138 W 46th St","2123984600",10036,40.757882,-73.983439,5,4,119,1022658,1009980151,"Midtown-Midtown South                                                      ",3.5,289,1,"indpak",3.22222222222222,2.22222222222222,85.5555555555556,9,3.32142857142857,2.42857142857143,167.785714285714,14,2.22857142857143,1.57142857142857,141.642857142857,10,3.41428571428571,2.64285714285714,240.571428571429,16,0.285714285714286,0.142857142857143,11.5714285714286,1,0,0,0,0
"Jimmy's Corner","Bar / Lounge","140 W 44th St","2122219510",10036,40.75662,-73.984331,5,4,119,1022619,1009960050,"Midtown-Midtown South                                                      ",4,513,1,"sportsbars",3.5,2.25,127.375,8,3.54545454545455,2.27272727272727,123.181818181818,11,3.47272727272727,2.81818181818182,275.181818181818,12,3.16363636363636,2.09090909090909,158.090909090909,12,1.59090909090909,1.45454545454545,158.272727272727,6,0,0,0,0
"Metro Deli/ Ranch #1","Deli","141 W 41st St","2127681111",10036,40.754756,-73.985956,5,4,113,1022574,1009940016,"Midtown-Midtown South                                                      ",2,6,1,"delis",NA,NA,NA,0,4.5,2.5,36.5,2,18,13,1246.5,11,17.5,13,1174,12,14,9.5,555,9,10.75,9.5,919,7
"Starbucks","Coffee","1500 Broadway","2122217515",10036,40.756856,-73.985973,5,4,119,1022610,1009960001,"Midtown-Midtown South                                                      ",2.5,78,2,"coffee",NA,NA,NA,0,3.42857142857143,2.42857142857143,233.428571428571,7,8,5.71428571428571,468.571428571429,18,4,2.71428571428571,158.571428571429,9,3.07142857142857,2.71428571428571,262.571428571429,7,0,0,0,0
"KFC, Tim Horton, Pizza Hut","Coffee","761 Seventh Ave","2127678347",10019,40.761184,-73.983186,5,4,131,1022710,1010037501,"Midtown-Midtown South                                                      ",3,63,1,"donuts",4,3,97,1,2.94444444444444,2.55555555555556,251.555555555556,9,5.96666666666667,4.55555555555556,354.888888888889,17,4.58888888888889,2.77777777777778,239.333333333333,13,0.888888888888889,0.666666666666667,27.7777777777778,2,0,0,0,0
"Tad's Steakhouse","Steakhouse","761 Seventh Ave","2123821164",10019,40.761184,-73.983186,5,4,131,1022710,1010037501,"Midtown-Midtown South                                                      ",3,106,2,"steak",4,3,97,1,2.94444444444444,2.55555555555556,251.555555555556,9,5.96666666666667,4.55555555555556,354.888888888889,17,4.58888888888889,2.77777777777778,239.333333333333,13,0.888888888888889,0.666666666666667,27.7777777777778,2,0,0,0,0
"Haagen-Dazs","Dessert","761-779 Seventh Ave",NA,10019,40.761184,-73.983186,5,4,131,1022710,1010037501,"Midtown-Midtown South                                                      ",NA,NA,NA,NA,4,3,97,1,2.94444444444444,2.55555555555556,251.555555555556,9,5.96666666666667,4.55555555555556,354.888888888889,17,4.58888888888889,2.77777777777778,239.333333333333,13,0.888888888888889,0.666666666666667,27.7777777777778,2,0,0,0,0
"Pizza Hut","Pizza","761-779 Seventh Ave","2127678347",10019,40.761184,-73.983186,5,4,131,1022710,1010037501,"Midtown-Midtown South                                                      ",1.5,16,2,"pizza",4,3,97,1,2.94444444444444,2.55555555555556,251.555555555556,9,5.96666666666667,4.55555555555556,354.888888888889,17,4.58888888888889,2.77777777777778,239.333333333333,13,0.888888888888889,0.666666666666667,27.7777777777778,2,0,0,0,0
"T.G.I. Friday's","American","761 Seventh Ave","2127678349",10019,40.761184,-73.983186,5,4,131,1022710,1010037501,"Midtown-Midtown South                                                      ",1.5,188,2,"tradamerican",4,3,97,1,2.94444444444444,2.55555555555556,251.555555555556,9,5.96666666666667,4.55555555555556,354.888888888889,17,4.58888888888889,2.77777777777778,239.333333333333,13,0.888888888888889,0.666666666666667,27.7777777777778,2,0,0,0,0
"Sbarro","Pizza","701 Seventh Ave","2122219725",10036,40.759293,-73.984543,5,4,125,1083718,1010000001,"Midtown-Midtown South                                                      ",2.5,62,1,"italian",3.66666666666667,3,271,3,3.15714285714286,2.5,222.357142857143,14,4.05714285714286,2.71428571428571,226.428571428571,18,2.03571428571429,1.57142857142857,112.785714285714,9,0,0,0,0,0,0,0,0
"Tad's Steak House","Steakhouse","701 Seventh Ave","2127678348",10036,40.759293,-73.984543,5,4,125,1083718,1010000001,"Midtown-Midtown South                                                      ",4,254,2,"lounges",3.66666666666667,3,271,3,3.15714285714286,2.5,222.357142857143,14,4.05714285714286,2.71428571428571,226.428571428571,18,2.03571428571429,1.57142857142857,112.785714285714,9,0,0,0,0,0,0,0,0
"Papa John's/Subway","Pizza","765 Eighth Ave","2122451900",10036,40.76029,-73.987572,4,3,127,1025055,1010370035,"Clinton                                                                    ",2,11,1,"pizza",2.25,2,23,2,3.02857142857143,2,150,7,5.97142857142857,4.42857142857143,503.142857142857,14,9.5,7.14285714285714,470,20,0,0,0,0,0,0,0,0
"Europa Cafe","Deli","787 Seventh Ave","2125812517",10019,40.761955,-73.982622,5,4,131,1023157,1010040020,"Midtown-Midtown South                                                      ",3,59,1,"sandwiches",2.83333333333333,2.66666666666667,400.666666666667,3,2.85714285714286,2.71428571428571,256.571428571429,7,5.57142857142857,4.14285714285714,322.571428571429,12,5.6,3.71428571428571,261.714285714286,12,3.82857142857143,2.57142857142857,281.142857142857,9,0.642857142857143,0.428571428571429,1.14285714285714,1
"LyBane Wine Bar","Italian","709 Eighth Ave","2125822012",10036,40.758885,-73.988604,4,3,121,1024992,1010350036,"Clinton                                                                    ",3.5,273,2,"mediterranean",1.4,0.5,266,2,2.5,1.625,181.625,8,5.1875,3.875,379.25,12,6.3125,4.25,212.375,15,2.1875,2.125,209.5,6,0,0,0,0
"Charley O's","American","713 Eighth Ave","2129770025",10036,40.759011,-73.988514,4,3,121,1024992,1010350036,"Clinton                                                                    ",3,1,1,"comedyclubs",1.4,0.5,266,2,2.5,1.625,181.625,8,5.1875,3.875,379.25,12,7.5,5.25,303.125,18,1,1.125,118.75,3,0,0,0,0
"Chicken Bar","American","717 Eighth Ave","2122455111",10036,40.759264,-73.98833,4,3,121,1025011,1010360029,"Clinton                                                                    ",3,48,1,"hotdogs",2.8,1,532,1,2.57142857142857,1.71428571428571,191.285714285714,7,5.57142857142857,4.14285714285714,448.571428571429,12,9.57142857142857,6.85714285714286,381.285714285714,20,0.785714285714286,0.857142857142857,102,2,0,0,0,0
"Starbucks","Coffee","770 Eighth Ave","2128309001",10036,40.760496,-73.987395,5,3,125,1086225,1010190001,"Midtown-Midtown South                                                      ",3,55,2,"coffee",2.83333333333333,2,100.333333333333,3,3.0875,2,142,8,4.7875,3.625,429.5,13,8.3125,6.25,411.25,20,0,0,0,0,0,0,0,0
"Pigalle","French","790 Eighth Ave","2124892233",10019,40.761127,-73.98694,5,3,125,1024771,1010207501,"Midtown-Midtown South                                                      ",3,423,2,"french",4,2,255,1,2.92857142857143,2,142,7,6,4.57142857142857,549,14,8.92857142857143,6.57142857142857,431,19,0.642857142857143,0.428571428571429,1.14285714285714,1,0,0,0,0
"A Slice of New York Pizza","Pizza","727 Eighth Ave","2124538970",10036,40.759576,-73.988099,4,3,121,1081652,1010360036,"Clinton                                                                    ",2,113,2,"pizza",2.25,2,23,2,2.6875,1.625,186.75,8,4.75,3.75,388.125,12,8.0625,5.75,318.625,19,0.6875,0.75,89.25,2,0,0,0,0
"Tonic Sports Bar & Restaurant","American","727 Seventh Ave","2123821059",10019,40.760059,-73.984005,5,4,125,1022690,1010010004,"Midtown-Midtown South                                                      ",3.5,455,2,"newamerican",3.5,3,208,2,3.15,2.5,195.2,10,6.87,5.3,424.7,22,2.93,1.7,166.3,9,0,0,0,0,0,0,0,0
"Daniela's Trattoria","Italian","728 Eighth Ave","2128693585",10036,40.759327,-73.988258,5,3,119,1024719,1010170002,"Midtown-Midtown South                                                      ",3.5,329,2,"italian",2.8,1,532,1,2.41666666666667,1.5,151,6,7.08333333333333,5.33333333333333,595.5,13,11.1666666666667,8,444.833333333333,20,0.916666666666667,1,119,2,0,0,0,0
"Spice Fusion","Indian","777 Eighth Ave","2127578100",10036,40.76068,-73.987287,4,3,127,1025101,1010380031,"Clinton                                                                    ",4,36,2,"indpak",2.83333333333333,2,100.333333333333,3,3.07777777777778,2,146.888888888889,9,4.31111111111111,3.33333333333333,379,13,7,5.22222222222222,347.666666666667,19,0,0,0,0,0,0,0,0
"Latitude","American","783 Eighth Ave","2122453034",10036,40.760814,-73.987189,4,3,127,1025103,1010380034,"Clinton                                                                    ",3.5,617,2,"tradamerican",2.83333333333333,2,100.333333333333,3,3.07777777777778,2,146.888888888889,9,3.97777777777778,3,373.111111111111,12,7.33333333333333,5.55555555555556,353.555555555556,20,0,0,0,0,0,0,0,0
"Brazil Grill","Brazilian","787 Eighth Ave","2123079449",10036,40.760902,-73.987124,4,3,127,1025105,1010380036,"Clinton                                                                    ",2.5,250,2,"steak",2.83333333333333,2,100.333333333333,3,3.1875,2,131.25,8,4.75,3.75,498,13,8.25,6.125,353.5,20,0,0,0,0,0,0,0,0
"Hawaiian Tropic Zone","American","729 Seventh Ave","2126267312",10019,40.760103,-73.983973,5,4,125,1022699,1010017501,"Midtown-Midtown South                                                      ",NA,NA,NA,NA,3.5,3,208,2,3.15,2.5,195.2,10,6.47,5,422.5,21,2.88,1.7,167.7,9,0.45,0.3,0.8,1,0,0,0,0
"Houlihan's Restaurant & Bar","American","729 Seventh Ave","2126267316",10019,40.760103,-73.983973,5,4,125,1022699,1010017501,"Midtown-Midtown South                                                      ",2.5,53,3,"newamerican",3.5,3,208,2,3.15,2.5,195.2,10,6.47,5,422.5,21,2.88,1.7,167.7,9,0.45,0.3,0.8,1,0,0,0,0
"Ruby Tuesday","American","7 Times Sq","2123823898",10036,40.755915,-73.986681,5,3,113,1086069,1009940001,"Midtown-Midtown South                                                      ",3,356,2,"tradamerican",NA,NA,NA,0,3.625,2.25,107.25,4,13.375,9.5,986.75,17,9.375,6.75,382,12,3.125,2.25,211.75,4,2.875,3,277.75,4
"Playwright Celtic Pub","Bar / Lounge","732 Eighth Ave","2123548404",10036,40.759401,-73.988204,5,3,119,1024721,1010170004,"Midtown-Midtown South                                                      ",3,290,2,"newamerican",2.8,1,532,1,2.5,1.57142857142857,177,7,6,4.57142857142857,480,13,9.21428571428571,6.57142857142857,364.142857142857,19,0.785714285714286,0.857142857142857,102,2,0,0,0,0
"Smith's Bar & Restaurant","American","701 Eighth Ave","2122463268",10036,40.758632,-73.988785,4,3,121,1024991,1010350029,"Clinton                                                                    ",3,372,2,"divebars",1.4,0.5,266,2,2.66,1.4,227,5,7.74,6,561.4,12,12,8.2,448.8,18,3.5,3.4,335.2,6,0,0,0,0
"Pax Foods","Deli","740 Seventh Ave","2123999100",10019,40.760369,-73.983807,5,4,125,1024778,1010200036,"Midtown-Midtown South                                                      ",3,175,2,"salad",3.5,3,208,2,3.22727272727273,2.54545454545455,186.272727272727,11,5.24545454545455,4,343.727272727273,19,2.89090909090909,1.81818181818182,184,10,0.409090909090909,0.272727272727273,0.727272727272727,1,0,0,0,0
"Godiva Chocolatier, Inc.","Consumables","745 Seventh Ave","2129212193",10019,40.760605,-73.983612,5,4,125,1084667,1010020001,"Midtown-Midtown South                                                      ",3,19,2,"chocolate",3,3,273,1,3.15,2.5,213.1,10,6.17,4.7,369.9,20,2.83,1.7,178.2,9,0.8,0.6,25,2,0,0,0,0
"Hale & Hearty","Deli","745 Seventh Ave","2122219666",10019,40.760605,-73.983612,5,4,125,1084667,1010020001,"Midtown-Midtown South                                                      ",3,59,1,"soup",3,3,273,1,3.15,2.5,213.1,10,6.17,4.7,369.9,20,2.83,1.7,178.2,9,0.8,0.6,25,2,0,0,0,0
"Majestic Delication CafÌ©","Deli","750 Seventh Ave","2125818249",10019,40.760753,-73.983525,5,4,125,1024795,1010210026,"Midtown-Midtown South                                                      ",2.5,153,2,"delis",3,3,273,1,3.0625,2.375,182.625,8,7.775,6.25,536.625,20,4.35,2.5,232.25,11,1,0.75,31.25,2,0,0,0,0
"Ruby Foo's","Pan Asian","750 Seventh Ave","2124895600",10019,40.760753,-73.983525,5,4,125,1024795,1010210026,"Midtown-Midtown South                                                      ",3,535,2,"asianfusion",3,3,273,1,3.0625,2.375,182.625,8,7.775,6.25,536.625,20,4.35,2.5,232.25,11,1,0.75,31.25,2,0,0,0,0
"Starbucks","Coffee","750 Seventh Ave","2129740032",10019,40.760753,-73.983525,5,4,125,1024795,1010210026,"Midtown-Midtown South                                                      ",2,36,2,"coffee",3,3,273,1,3.0625,2.375,182.625,8,7.775,6.25,536.625,20,4.35,2.5,232.25,11,1,0.75,31.25,2,0,0,0,0
"Kodama Sushi","Japanese","301 W 45th St","2125828065",10036,40.759351,-73.988814,4,3,121,1025011,1010360029,"Clinton                                                                    ",3.5,393,2,"sushi",1.4,0.5,266,2,2.46,1.4,126.8,5,8.94,6.8,769,14,12.1,8.4,467.2,18,2.4,2.4,209.4,4,0,0,0,0
"Mean Fiddler, The","Bar / Lounge","266 W 47th St","2123542950",10036,40.76001,-73.986557,5,3,125,1024748,1010180061,"Midtown-Midtown South                                                      ",4,331,2,"irish_pubs",2.44,2,147.8,5,3.05833333333333,2.33333333333333,196,12,3.73333333333333,2.58333333333333,263,15,4,3,196.166666666667,14,0,0,0,0,0,0,0,0
"Midtown Gourmet Deli","Deli","840 Eighth Ave","2125866433",10019,40.762694,-73.985799,5,3,131,1024813,1010220061,"Midtown-Midtown South                                                      ",NA,NA,NA,NA,4,2,162,1,3.41666666666667,2.16666666666667,161.666666666667,6,6.45,5.33333333333333,512,13,4.8,3.66666666666667,334,10,6.16666666666667,4.16666666666667,301.333333333333,11,0.75,0.5,1.33333333333333,1
"Nan King Chinese Cuisine","Chinese","1632 Broadway","2125863100",10019,40.761516,-73.983976,5,4,131,1024810,1010220026,"Midtown-Midtown South                                                      ",2.5,269,2,"chinese",2.5,2,120,1,2.94444444444444,2.44444444444444,190.555555555556,9,4.74444444444444,3.88888888888889,378.555555555556,14,5.31111111111111,3.33333333333333,269.444444444444,15,1.38888888888889,0.888888888888889,35,3,0,0,0,0
"Patzeria Pizza","Pizza","231 W 46th St","2125757646",10036,40.759101,-73.986276,5,3,125,1024738,1010180013,"Midtown-Midtown South                                                      ",4,1330,1,"pizza",2.9,2.33333333333333,342.666666666667,3,2.96666666666667,2.44444444444444,255.777777777778,9,8.53333333333333,5.66666666666667,412.666666666667,24,2.88888888888889,2.44444444444444,205.111111111111,8,0,0,0,0,0,0,0,0
"Piano Due","American","151 W 51st St","2123999400",10019,40.761324,-73.981846,5,4,131,1023157,1010040020,"Midtown-Midtown South                                                      ",4,18,3,"italian",3,2.66666666666667,214,3,2.875,2.75,319.75,4,10.875,8.75,630,14,12.175,8.5,653.25,15,5.325,3,360.5,7,1.125,0.75,2,1
"Sombrero","Mexican","303 W 48th St","2125864853",10036,40.76124,-73.987478,4,3,127,1025141,1010390029,"Clinton                                                                    ",2.5,252,2,"mexican",4,2,255,1,3.25,2,88.5,6,6.41666666666667,4.83333333333333,600.333333333333,13,9.16666666666667,7.33333333333333,570.166666666667,18,2.75,1.66666666666667,51.3333333333333,4,0,0,0,0
"Thalia Kitchen","Italian","828 Eighth Ave","2123994444",10019,40.762192,-73.986164,5,3,125,1085498,1010210001,"Midtown-Midtown South                                                      ",3.5,758,2,"newamerican",NA,NA,NA,0,3.25,2,149.5,6,7.2,6,565.333333333333,14,6.21666666666667,4.66666666666667,433.333333333333,13,4.91666666666667,3.16666666666667,162.166666666667,8,0,0,0,0
"Tom and Toon","Thai","245 W 51st St",NA,10019,40.762439,-73.984492,5,3,131,1024816,1010230006,"Midtown-Midtown South                                                      ",4,42,2,"thai",3,2.5,140.5,2,3,2.28571428571429,202.714285714286,7,5.67142857142857,4.71428571428571,413,13,5.32857142857143,3.42857142857143,292,12,3.85714285714286,2.71428571428571,214.285714285714,8,0.642857142857143,0.428571428571429,1.14285714285714,1
"Grand Sichuan","Chinese","368 W 46th St",NA,10036,40.760548,-73.989734,4,3,121,1025028,1010360060,"Clinton                                                                    ",NA,NA,NA,NA,5,2,56,1,3.16666666666667,2,34,3,8.83333333333333,5.66666666666667,766.333333333333,10,12.8333333333333,10.3333333333333,860.666666666667,11,18.3333333333333,13.6666666666667,959.666666666667,17,0,0,0,0
"Chopp't","Deli","1460 Broadway",NA,10036,40.754998,-73.986284,5,4,113,1022573,1009947504,"Midtown-Midtown South                                                      ",NA,NA,NA,NA,NA,NA,NA,0,4.5,2.5,36.5,2,18,13,1246.5,11,18.25,14,1183,13,15.25,10,594.5,9,8.75,8,870.5,6
"Glass House Tavern","American","252 W 47th St
Storefront","2127304800",10036,40.759906,-73.986312,5,3,125,1024745,1010180055,"Midtown-Midtown South                                                      ",3.5,267,3,"newamerican",2.56666666666667,2,231,3,3.09230769230769,2.38461538461538,238.615384615385,13,4.48461538461538,3.07692307692308,245.846153846154,19,2.38461538461538,1.84615384615385,120.307692307692,9,0,0,0,0,0,0,0,0
"Off Broadway Deli/ Pizza","Deli","726 Eighth Ave",NA,10036,40.759291,-73.988287,5,3,119,1024732,1010170101,"Midtown-Midtown South                                                      ",NA,NA,NA,NA,2.8,1,532,1,2.41666666666667,1.5,151,6,7.08333333333333,5.33333333333333,595.5,13,11.1666666666667,8,444.833333333333,20,0.916666666666667,1,119,2,0,0,0,0
"Z Deli-Pizzeria","Pizza","803 Eighth Ave","2123151659",10019,40.761371,-73.986785,4,3,127,1025144,1010390032,"Clinton                                                                    ",3.5,64,1,"pizza",4,2,255,1,2.875,2,139.25,8,5.4375,4.125,477.5,14,6.75,5.125,356.875,17,1.125,0.625,9.125,2,0,0,0,0
"Zheng's Lucky Sunday Garden","Chinese","856 Eighth Ave","2124593607",10019,40.763207,-73.985423,5,3,131,1081644,1010230002,"Midtown-Midtown South                                                      ",1.5,8,2,"chinese",4,2,162,1,3.125,2.5,169.75,4,8,6.25,617.25,11,8.125,6.25,640.5,11,10.875,7.5,519.75,13,2.25,1.25,18.25,2
"Charley O's","American","1611 Broadway","2122461960",10019,40.760696,-73.984568,5,3,125,1076195,1010200046,"Midtown-Midtown South                                                      ",1,5,2,"tradamerican",3,2.25,158.25,4,3.16666666666667,2.44444444444444,211,9,6.68888888888889,5.22222222222222,415.333333333333,19,4.03333333333333,2.55555555555556,246.333333333333,12,0.5,0.333333333333333,0.888888888888889,1,0,0,0,0
